{
  "AYGA": {
    "name": "GOROKA",
    "city": "GOROKA",
    "country": "PAPUA NEW GUINEA",
    "lat": -6.082,
    "lng": 145.392
  },
  "AYMD": {
    "name": "MADANG",
    "city": "MADANG",
    "country": "PAPUA NEW GUINEA",
    "lat": -5.207,
    "lng": 145.789
  },
  "AYMH": {
    "name": "MOUNT HAGEN",
    "city": "MOUNT HAGEN",
    "country": "PAPUA NEW GUINEA",
    "lat": -5.826,
    "lng": 144.296
  },
  "AYNZ": {
    "name": "NADZAB",
    "city": "NADZAB",
    "country": "PAPUA NEW GUINEA",
    "lat": -6.57,
    "lng": 146.726
  },
  "AYPY": {
    "name": "PORT MORESBY JACKSONS INTERNATIONAL",
    "city": "PORT MORESBY",
    "country": "PAPUA NEW GUINEA",
    "lat": -9.443,
    "lng": 147.22
  },
  "AYWK": {
    "name": "WEWAK INTERNATIONAL",
    "city": "WEWAK",
    "country": "PAPUA NEW GUINEA",
    "lat": -3.584,
    "lng": 143.669
  },
  "BGBW": {
    "name": "NARSARSUAQ",
    "city": "NARSSARSSUAQ",
    "country": "GREENLAND",
    "lat": 61.161,
    "lng": -45.427
  },
  "BGCO": {
    "name": "NERLERIT INAAT CONSTABLE PYNT",
    "city": "NERLERIT INAAT",
    "country": "GREENLAND",
    "lat": 70.739,
    "lng": -22.646
  },
  "BGGH": {
    "name": "NUUK",
    "city": "GODTHAAB",
    "country": "GREENLAND",
    "lat": 64.191,
    "lng": -51.678
  },
  "BGJN": {
    "name": "JACOBSHAVN",
    "city": "JAKOBSHAVN",
    "country": "GREENLAND",
    "lat": 69.233,
    "lng": -51.067
  },
  "BGKK": {
    "name": "KULUSUK",
    "city": "KULUSUK",
    "country": "GREENLAND",
    "lat": 65.583,
    "lng": -37.15
  },
  "BGSF": {
    "name": "KANGERLUSSUAQ SONDRE STROMFJORD",
    "city": "SONDRESTROM",
    "country": "GREENLAND",
    "lat": 67.017,
    "lng": -50.689
  },
  "BGTL": {
    "name": "THULE AIR BASE",
    "city": "THULE",
    "country": "GREENLAND",
    "lat": 76.531,
    "lng": -68.703
  },
  "BIAR": {
    "name": "AKUREYRI",
    "city": "AKUREYRI",
    "country": "ICELAND",
    "lat": 65.66,
    "lng": -18.072
  },
  "BIEG": {
    "name": "EGILSSTADIR",
    "city": "EGILSSTADIR",
    "country": "ICELAND",
    "lat": 65.283,
    "lng": -14.401
  },
  "BIHN": {
    "name": "HORNAFJORDUR",
    "city": "HOFN",
    "country": "ICELAND",
    "lat": 64.296,
    "lng": -15.227
  },
  "BIHU": {
    "name": "HUSAVIK",
    "city": "HUSAVIK",
    "country": "ICELAND",
    "lat": 65.952,
    "lng": -17.426
  },
  "BIIS": {
    "name": "ISAFJORDUR",
    "city": "ISAFJORDUR",
    "country": "ICELAND",
    "lat": 66.058,
    "lng": -23.135
  },
  "BIKF": {
    "name": "KEFLAVIK NAS",
    "city": "KEFLAVIK",
    "country": "ICELAND",
    "lat": 63.985,
    "lng": -22.606
  },
  "BIKP": {
    "name": "KOPASKER",
    "city": "KOPASKER",
    "country": "ICELAND",
    "lat": 66.314,
    "lng": -16.461
  },
  "BIPA": {
    "name": "PATREKSFJORDUR",
    "city": "PATREKSFJORDUR",
    "country": "ICELAND",
    "lat": 65.556,
    "lng": -23.965
  },
  "BIRK": {
    "name": "REYKJAVIK",
    "city": "REYKJAVIK",
    "country": "ICELAND",
    "lat": 64.13,
    "lng": -21.941
  },
  "BISI": {
    "name": "SIGLUFJORDHUR",
    "city": "SIGLUFJORDUR",
    "country": "ICELAND",
    "lat": 66.133,
    "lng": -18.917
  },
  "BIVM": {
    "name": "VESTMANNAEYJAR",
    "city": "VESTMANNAEYJAR",
    "country": "ICELAND",
    "lat": 63.424,
    "lng": -20.279
  },
  "CYAM": {
    "name": "SAULT STE MARIE",
    "city": "SAULT SAINTE MARIE",
    "country": "CANADA",
    "lat": 46.485,
    "lng": -84.509
  },
  "CYAV": {
    "name": "WINNIPEG ST ANDREWS",
    "city": "WINNIPEG",
    "country": "CANADA",
    "lat": 50.056,
    "lng": -97.032
  },
  "CYAW": {
    "name": "SHEARWATER",
    "city": "HALIFAX",
    "country": "CANADA",
    "lat": 44.64,
    "lng": -63.499
  },
  "CYAY": {
    "name": "ST ANTHONY",
    "city": "ST. ANTHONY",
    "country": "CANADA",
    "lat": 51.392,
    "lng": -56.084
  },
  "CYAZ": {
    "name": "TOFINO",
    "city": "TOFINO",
    "country": "CANADA",
    "lat": 49.082,
    "lng": -125.772
  },
  "CYBB": {
    "name": "KUGAARUK",
    "city": "PELLY BAY",
    "country": "CANADA",
    "lat": 68.534,
    "lng": -89.808
  },
  "CYBC": {
    "name": "BAIE COMEAU",
    "city": "BAIE COMEAU",
    "country": "CANADA",
    "lat": 49.132,
    "lng": -68.207
  },
  "CYBG": {
    "name": "BAGOTVILLE",
    "city": "BAGOTVILLE",
    "country": "CANADA",
    "lat": 48.331,
    "lng": -70.996
  },
  "CYBK": {
    "name": "BAKER LAKE",
    "city": "BAKER LAKE",
    "country": "CANADA",
    "lat": 64.299,
    "lng": -96.078
  },
  "CYBL": {
    "name": "CAMPBELL RIVER",
    "city": "CAMPBELL RIVER",
    "country": "CANADA",
    "lat": 49.951,
    "lng": -125.271
  },
  "CYBR": {
    "name": "BRANDON MUNI",
    "city": "BRANDON",
    "country": "CANADA",
    "lat": 49.91,
    "lng": -99.952
  },
  "CYCB": {
    "name": "CAMBRIDGE BAY",
    "city": "CAMBRIDGE BAY",
    "country": "CANADA",
    "lat": 69.108,
    "lng": -105.138
  },
  "CYCD": {
    "name": "NANAIMO",
    "city": "NANAIMO",
    "country": "CANADA",
    "lat": 49.052,
    "lng": -123.87
  },
  "CYCG": {
    "name": "CASTLEGAR",
    "city": "CASTLEGAR",
    "country": "CANADA",
    "lat": 49.296,
    "lng": -117.632
  },
  "CYCH": {
    "name": "MIRAMICHI",
    "city": "CHATHAM",
    "country": "CANADA",
    "lat": 47.008,
    "lng": -65.449
  },
  "CYCL": {
    "name": "CHARLO",
    "city": "CHARLO",
    "country": "CANADA",
    "lat": 47.991,
    "lng": -66.331
  },
  "CYCO": {
    "name": "KUGLUKTUK",
    "city": "COPPERMINE",
    "country": "CANADA",
    "lat": 67.817,
    "lng": -115.144
  },
  "CYCT": {
    "name": "CORONATION",
    "city": "CORONATION",
    "country": "CANADA",
    "lat": 52.075,
    "lng": -111.445
  },
  "CYCW": {
    "name": "CHILLIWACK",
    "city": "CHILLIWACK",
    "country": "CANADA",
    "lat": 49.153,
    "lng": -121.939
  },
  "CYCY": {
    "name": "CLYDE RIVER",
    "city": "CLYDE RIVER",
    "country": "CANADA",
    "lat": 70.486,
    "lng": -68.517
  },
  "CYCZ": {
    "name": "FAIRMONT HOT SPRINGS",
    "city": "CORAL HARBOUR",
    "country": "CANADA",
    "lat": 50.332,
    "lng": -115.874
  },
  "CYDA": {
    "name": "DAWSON",
    "city": "DAWSON",
    "country": "CANADA",
    "lat": 64.043,
    "lng": -139.128
  },
  "CYDB": {
    "name": "BURWASH",
    "city": "BURWASH",
    "country": "CANADA",
    "lat": 61.371,
    "lng": -139.041
  },
  "CYDC": {
    "name": "PRINCETON",
    "city": "PRINCETON",
    "country": "CANADA",
    "lat": 49.468,
    "lng": -120.512
  },
  "CYDF": {
    "name": "DEER LAKE",
    "city": "DEER LAKE",
    "country": "CANADA",
    "lat": 49.211,
    "lng": -57.391
  },
  "CYDL": {
    "name": "DEASE LAKE",
    "city": "DEASE LAKE",
    "country": "CANADA",
    "lat": 58.422,
    "lng": -130.032
  },
  "CYDN": {
    "name": "DAUPHIN BARKER",
    "city": "DAUPHIN",
    "country": "CANADA",
    "lat": 51.101,
    "lng": -100.052
  },
  "CYDQ": {
    "name": "DAWSON CREEK",
    "city": "DAWSON CREEK",
    "country": "CANADA",
    "lat": 55.742,
    "lng": -120.182
  },
  "CYED": {
    "name": "EDMONTON NAMAO",
    "city": "EDMONTON",
    "country": "CANADA",
    "lat": 53.667,
    "lng": -113.467
  },
  "CYEG": {
    "name": "EDMONTON INTERNATIONAL",
    "city": "EDMONTON",
    "country": "CANADA",
    "lat": 53.31,
    "lng": -113.58
  },
  "CYEK": {
    "name": "ARVIAT",
    "city": "ESKIMO POINT",
    "country": "CANADA",
    "lat": 61.094,
    "lng": -94.071
  },
  "CYEN": {
    "name": "ESTEVAN",
    "city": "ESTEVAN",
    "country": "CANADA",
    "lat": 49.21,
    "lng": -102.966
  },
  "CYET": {
    "name": "EDSON",
    "city": "EDSON",
    "country": "CANADA",
    "lat": 53.579,
    "lng": -116.465
  },
  "CYEU": {
    "name": "EUREKA",
    "city": "EUREKA",
    "country": "CANADA",
    "lat": 79.995,
    "lng": -85.813
  },
  "CYEV": {
    "name": "INUVIK MIKE ZUBKO",
    "city": "INUVIK",
    "country": "CANADA",
    "lat": 68.304,
    "lng": -133.483
  },
  "CYFB": {
    "name": "IQALUIT",
    "city": "IQALUIT",
    "country": "CANADA",
    "lat": 63.756,
    "lng": -68.556
  },
  "CYFC": {
    "name": "FREDERICTON",
    "city": "FREDERICTON",
    "country": "CANADA",
    "lat": 45.869,
    "lng": -66.532
  },
  "CYFE": {
    "name": "FORESTVILLE",
    "city": "FORESTVILLE",
    "country": "CANADA",
    "lat": 48.746,
    "lng": -69.097
  },
  "CYFO": {
    "name": "FLIN FLON",
    "city": "FLIN FLON",
    "country": "CANADA",
    "lat": 54.678,
    "lng": -101.682
  },
  "CYFR": {
    "name": "FORT RESOLUTION",
    "city": "FORT RESOLUTION",
    "country": "CANADA",
    "lat": 61.181,
    "lng": -113.69
  },
  "CYFS": {
    "name": "FORT SIMPSON",
    "city": "FORT SIMPSON",
    "country": "CANADA",
    "lat": 61.76,
    "lng": -121.237
  },
  "CYGK": {
    "name": "KINGSTON",
    "city": "KINGSTON",
    "country": "CANADA",
    "lat": 44.225,
    "lng": -76.597
  },
  "CYGL": {
    "name": "LA GRANDE RIVIERE",
    "city": "LA GRANDE RIVIERE",
    "country": "CANADA",
    "lat": 53.625,
    "lng": -77.704
  },
  "CYGP": {
    "name": "GASPE",
    "city": "GASPE",
    "country": "CANADA",
    "lat": 48.775,
    "lng": -64.479
  },
  "CYGQ": {
    "name": "GERALDTON GREENSTONE REGIONAL",
    "city": "GERALDTON",
    "country": "CANADA",
    "lat": 49.778,
    "lng": -86.939
  },
  "CYGR": {
    "name": "ILES DE LA MADELEINE",
    "city": "ILES DE LA MADELEINE",
    "country": "CANADA",
    "lat": 47.425,
    "lng": -61.778
  },
  "CYGW": {
    "name": "KUUJJUARAPIK",
    "city": "KUUJJUARARAPIK",
    "country": "CANADA",
    "lat": 55.283,
    "lng": -77.767
  },
  "CYGX": {
    "name": "GILLAM",
    "city": "GILLAM",
    "country": "CANADA",
    "lat": 56.35,
    "lng": -94.7
  },
  "CYHB": {
    "name": "HUDSON BAY",
    "city": "HUDSON BAY",
    "country": "CANADA",
    "lat": 52.817,
    "lng": -102.311
  },
  "CYHD": {
    "name": "DRYDEN RGNL",
    "city": "DRYDEN",
    "country": "CANADA",
    "lat": 49.832,
    "lng": -92.744
  },
  "CYHI": {
    "name": "HOLMAN",
    "city": "HOLMAN ISLAND",
    "country": "CANADA",
    "lat": 70.763,
    "lng": -117.806
  },
  "CYHK": {
    "name": "GJOA HAVEN",
    "city": "GJOA HAVEN",
    "country": "CANADA",
    "lat": 68.636,
    "lng": -95.85
  },
  "CYHM": {
    "name": "HAMILTON",
    "city": "HAMILTON",
    "country": "CANADA",
    "lat": 43.173,
    "lng": -79.935
  },
  "CYHU": {
    "name": "ST HUBERT",
    "city": "MONTREAL",
    "country": "CANADA",
    "lat": 45.517,
    "lng": -73.417
  },
  "CYHY": {
    "name": "HAY RIVER",
    "city": "HAY RIVER",
    "country": "CANADA",
    "lat": 60.84,
    "lng": -115.783
  },
  "CYHZ": {
    "name": "HALIFAX INTERNATIONAL",
    "city": "HALIFAX",
    "country": "CANADA",
    "lat": 44.881,
    "lng": -63.509
  },
  "CYIB": {
    "name": "ATIKOKAN MUNI",
    "city": "ATIKOKAN",
    "country": "CANADA",
    "lat": 48.774,
    "lng": -91.639
  },
  "CYIO": {
    "name": "POND INLET",
    "city": "POND INLET",
    "country": "CANADA",
    "lat": 72.683,
    "lng": -77.967
  },
  "CYJN": {
    "name": "ST JEAN",
    "city": "ST. JEAN",
    "country": "CANADA",
    "lat": 45.294,
    "lng": -73.281
  },
  "CYJT": {
    "name": "STEPHENVILLE",
    "city": "STEPHENVILLE",
    "country": "CANADA",
    "lat": 48.544,
    "lng": -58.55
  },
  "CYKA": {
    "name": "KAMLOOPS",
    "city": "KAMLOOPS",
    "country": "CANADA",
    "lat": 50.702,
    "lng": -120.442
  },
  "CYKF": {
    "name": "WATERLOO RGNL",
    "city": "WATERLOO",
    "country": "CANADA",
    "lat": 43.459,
    "lng": -80.384
  },
  "CYKL": {
    "name": "SCHEFFERVILLE",
    "city": "SCHEFFERVILLE",
    "country": "CANADA",
    "lat": 54.805,
    "lng": -66.805
  },
  "CYKY": {
    "name": "KINDERSLEY",
    "city": "KINDERSLEY",
    "country": "CANADA",
    "lat": 51.517,
    "lng": -109.181
  },
  "CYKZ": {
    "name": "BUTTONVILLE MUNI",
    "city": "TORONTO",
    "country": "CANADA",
    "lat": 43.862,
    "lng": -79.37
  },
  "CYLD": {
    "name": "CHAPLEAU",
    "city": "CHAPLEAU",
    "country": "CANADA",
    "lat": 47.82,
    "lng": -83.346
  },
  "CYLJ": {
    "name": "MEADOW LAKE",
    "city": "MEADOW LAKE",
    "country": "CANADA",
    "lat": 54.125,
    "lng": -108.523
  },
  "CYLL": {
    "name": "LLOYDMINSTER",
    "city": "LLOYDMINSTER",
    "country": "CANADA",
    "lat": 53.309,
    "lng": -110.072
  },
  "CYLT": {
    "name": "ALERT",
    "city": "ALERT",
    "country": "CANADA",
    "lat": 82.518,
    "lng": -62.281
  },
  "CYLW": {
    "name": "KELOWNA",
    "city": "KELOWNA",
    "country": "CANADA",
    "lat": 49.956,
    "lng": -119.378
  },
  "CYMA": {
    "name": "MAYO",
    "city": "MAYO",
    "country": "CANADA",
    "lat": 63.617,
    "lng": -135.867
  },
  "CYMJ": {
    "name": "MOOSE JAW",
    "city": "MOOSE JAW",
    "country": "CANADA",
    "lat": 50.33,
    "lng": -105.559
  },
  "CYMM": {
    "name": "FORT MCMURRAY",
    "city": "FORT MCMURRAY",
    "country": "CANADA",
    "lat": 56.653,
    "lng": -111.222
  },
  "CYMO": {
    "name": "MOOSONEE",
    "city": "MOOSONEE",
    "country": "CANADA",
    "lat": 51.291,
    "lng": -80.608
  },
  "CYMW": {
    "name": "MANIWAKI",
    "city": "MANIWAKI",
    "country": "CANADA",
    "lat": 46.274,
    "lng": -75.99
  },
  "CYMX": {
    "name": "MONTREAL INTERNATIONAL MIRABEL",
    "city": "MONTREAL",
    "country": "CANADA",
    "lat": 45.68,
    "lng": -74.039
  },
  "CYNA": {
    "name": "NATASHQUAN",
    "city": "NATASHQUAN",
    "country": "CANADA",
    "lat": 50.19,
    "lng": -61.789
  },
  "CYND": {
    "name": "GATINEAU",
    "city": "GATINEAU",
    "country": "CANADA",
    "lat": 45.521,
    "lng": -75.564
  },
  "CYNM": {
    "name": "MATAGAMI",
    "city": "MATAGAMI",
    "country": "CANADA",
    "lat": 49.762,
    "lng": -77.803
  },
  "CYOC": {
    "name": "OLD CROW",
    "city": "OLD CROW",
    "country": "CANADA",
    "lat": 67.571,
    "lng": -139.839
  },
  "CYOD": {
    "name": "COLD LAKE",
    "city": "COLD LAKE",
    "country": "CANADA",
    "lat": 54.405,
    "lng": -110.279
  },
  "CYOJ": {
    "name": "HIGH LEVEL",
    "city": "HIGH LEVEL",
    "country": "CANADA",
    "lat": 58.621,
    "lng": -117.165
  },
  "CYOW": {
    "name": "OTTAWA MACDONALD CARTIER INTERNATIONAL",
    "city": "OTTAWA",
    "country": "CANADA",
    "lat": 45.323,
    "lng": -75.669
  },
  "CYPA": {
    "name": "PRINCE ALBERT GLASS FIELD",
    "city": "PRINCE ALBERT",
    "country": "CANADA",
    "lat": 53.214,
    "lng": -105.673
  },
  "CYPE": {
    "name": "PEACE RIVER",
    "city": "PEACE RIVER",
    "country": "CANADA",
    "lat": 56.227,
    "lng": -117.447
  },
  "CYPG": {
    "name": "SOUTHPORT",
    "city": "PORTAGE-LA-PRAIRIE",
    "country": "CANADA",
    "lat": 49.903,
    "lng": -98.275
  },
  "CYPK": {
    "name": "PITT MEADOWS",
    "city": "PITT MEADOWS",
    "country": "CANADA",
    "lat": 49.216,
    "lng": -122.71
  },
  "CYPL": {
    "name": "PICKLE LAKE",
    "city": "PICKLE LAKE",
    "country": "CANADA",
    "lat": 51.446,
    "lng": -90.214
  },
  "CYPN": {
    "name": "PORT MENIER",
    "city": "PORT MENIER",
    "country": "CANADA",
    "lat": 49.836,
    "lng": -64.289
  },
  "CYPQ": {
    "name": "PETERBOROUGH",
    "city": "PETERBOROUGH",
    "country": "CANADA",
    "lat": 44.23,
    "lng": -78.363
  },
  "CYPR": {
    "name": "PRINCE RUPERT",
    "city": "PRINCE PUPERT",
    "country": "CANADA",
    "lat": 54.286,
    "lng": -130.445
  },
  "CYPY": {
    "name": "FORT CHIPEWYAN",
    "city": "FORT CHIPEWYAN",
    "country": "CANADA",
    "lat": 58.767,
    "lng": -111.117
  },
  "CYQA": {
    "name": "MUSKOKA",
    "city": "MUSKOKA",
    "country": "CANADA",
    "lat": 44.975,
    "lng": -79.303
  },
  "CYQB": {
    "name": "QUEBEC JEAN LESAGE INTERNATIONAL",
    "city": "QUEBEC",
    "country": "CANADA",
    "lat": 46.788,
    "lng": -71.398
  },
  "CYQF": {
    "name": "RED DEER REGIONAL",
    "city": "RED DEER INDUSTRIAL",
    "country": "CANADA",
    "lat": 52.179,
    "lng": -113.893
  },
  "CYQG": {
    "name": "WINDSOR",
    "city": "WINDSOR",
    "country": "CANADA",
    "lat": 42.276,
    "lng": -82.956
  },
  "CYQH": {
    "name": "WATSON LAKE",
    "city": "WATSON LAKE",
    "country": "CANADA",
    "lat": 60.118,
    "lng": -128.822
  },
  "CYQK": {
    "name": "KENORA",
    "city": "KENORA",
    "country": "CANADA",
    "lat": 49.788,
    "lng": -94.363
  },
  "CYQL": {
    "name": "LETHBRIDGE",
    "city": "LETHBRIDGE",
    "country": "CANADA",
    "lat": 49.63,
    "lng": -112.8
  },
  "CYQM": {
    "name": "GREATER MONCTON INTERNATIONAL",
    "city": "MONCTON",
    "country": "CANADA",
    "lat": 46.112,
    "lng": -64.679
  },
  "CYQN": {
    "name": "NAKINA",
    "city": "NAKINA",
    "country": "CANADA",
    "lat": 50.183,
    "lng": -86.696
  },
  "CYQQ": {
    "name": "COMOX",
    "city": "COMOX",
    "country": "CANADA",
    "lat": 49.711,
    "lng": -124.887
  },
  "CYQR": {
    "name": "REGINA INTERNATIONAL",
    "city": "REGINA",
    "country": "CANADA",
    "lat": 50.432,
    "lng": -104.666
  },
  "CYQT": {
    "name": "THUNDER BAY",
    "city": "THUNDER BAY",
    "country": "CANADA",
    "lat": 48.372,
    "lng": -89.324
  },
  "CYQU": {
    "name": "GRANDE PRAIRIE",
    "city": "GRANDE PRAIRIE",
    "country": "CANADA",
    "lat": 55.18,
    "lng": -118.885
  },
  "CYQV": {
    "name": "YORKTON MUNI",
    "city": "YORKTON",
    "country": "CANADA",
    "lat": 51.265,
    "lng": -102.462
  },
  "CYQW": {
    "name": "NORTH BATTLEFORD",
    "city": "NORTH BATTLEFORD",
    "country": "CANADA",
    "lat": 52.769,
    "lng": -108.244
  },
  "CYQX": {
    "name": "GANDER INTERNATIONAL",
    "city": "GANDER",
    "country": "CANADA",
    "lat": 48.937,
    "lng": -54.568
  },
  "CYQY": {
    "name": "SYDNEY",
    "city": "SYDNEY",
    "country": "CANADA",
    "lat": 46.161,
    "lng": -60.048
  },
  "CYQZ": {
    "name": "QUESNEL",
    "city": "QUESNEL",
    "country": "CANADA",
    "lat": 53.026,
    "lng": -122.51
  },
  "CYRB": {
    "name": "RESOLUTE BAY",
    "city": "RESOLUTE",
    "country": "CANADA",
    "lat": 74.717,
    "lng": -94.969
  },
  "CYRI": {
    "name": "RIVIERE DU LOUP",
    "city": "RIVIERE DU LOUP",
    "country": "CANADA",
    "lat": 47.764,
    "lng": -69.585
  },
  "CYRJ": {
    "name": "ROBERVAL",
    "city": "ROBERVAL",
    "country": "CANADA",
    "lat": 48.52,
    "lng": -72.266
  },
  "CYRM": {
    "name": "ROCKY MOUNTAIN HOUSE",
    "city": "ROCKY MOUNTAIN HOUSE",
    "country": "CANADA",
    "lat": 52.43,
    "lng": -114.904
  },
  "CYRT": {
    "name": "RANKIN INLET",
    "city": "RANKIN INLET",
    "country": "CANADA",
    "lat": 62.811,
    "lng": -92.116
  },
  "CYSB": {
    "name": "SUDBURY",
    "city": "SUDBURY",
    "country": "CANADA",
    "lat": 46.625,
    "lng": -80.799
  },
  "CYSC": {
    "name": "SHERBROOKE",
    "city": "SHERBROOKE",
    "country": "CANADA",
    "lat": 45.438,
    "lng": -71.691
  },
  "CYSJ": {
    "name": "SAINT JOHN",
    "city": "ST. JOHN",
    "country": "CANADA",
    "lat": 45.316,
    "lng": -65.89
  },
  "CYSM": {
    "name": "FORT SMITH",
    "city": "FORT SMITH",
    "country": "CANADA",
    "lat": 60.022,
    "lng": -111.96
  },
  "CYSR": {
    "name": "NANISIVIK",
    "city": "NANISIVIK",
    "country": "CANADA",
    "lat": 72.982,
    "lng": -84.614
  },
  "CYSU": {
    "name": "SUMMERSIDE",
    "city": "SUMMERSIDE",
    "country": "CANADA",
    "lat": 46.443,
    "lng": -63.831
  },
  "CYSY": {
    "name": "SACHS HARBOUR",
    "city": "SACHS HARBOUR",
    "country": "CANADA",
    "lat": 71.994,
    "lng": -125.243
  },
  "CYTE": {
    "name": "CAPE DORSET",
    "city": "CAPE DORSET",
    "country": "CANADA",
    "lat": 64.23,
    "lng": -76.527
  },
  "CYTH": {
    "name": "THOMPSON",
    "city": "THOMPSON",
    "country": "CANADA",
    "lat": 55.801,
    "lng": -97.864
  },
  "CYTR": {
    "name": "TRENTON",
    "city": "TRENTON",
    "country": "CANADA",
    "lat": 44.119,
    "lng": -77.528
  },
  "CYTS": {
    "name": "TIMMINS",
    "city": "TIMMINS",
    "country": "CANADA",
    "lat": 48.57,
    "lng": -81.377
  },
  "CYTZ": {
    "name": "CITY CENTRE",
    "city": "TORONTO",
    "country": "CANADA",
    "lat": 43.627,
    "lng": -79.396
  },
  "CYUB": {
    "name": "TUKTOYAKTUK",
    "city": "TUKTOYAKTUK",
    "country": "CANADA",
    "lat": 69.433,
    "lng": -133.026
  },
  "CYUL": {
    "name": "MONTREAL INTERNATIONAL DORVAL",
    "city": "MONTREAL",
    "country": "CANADA",
    "lat": 45.468,
    "lng": -73.741
  },
  "CYUT": {
    "name": "REPULSE BAY",
    "city": "REPULSE BAY",
    "country": "CANADA",
    "lat": 66.521,
    "lng": -86.225
  },
  "CYUX": {
    "name": "HALL BEACH",
    "city": "HALL BEACH",
    "country": "CANADA",
    "lat": 68.776,
    "lng": -81.244
  },
  "CYUY": {
    "name": "ROUYN NORANDA",
    "city": "ROUYN",
    "country": "CANADA",
    "lat": 48.206,
    "lng": -78.836
  },
  "CYVC": {
    "name": "LA RONGE",
    "city": "LA RONGE",
    "country": "CANADA",
    "lat": 55.151,
    "lng": -105.262
  },
  "CYVG": {
    "name": "VERMILION",
    "city": "VERMILLION",
    "country": "CANADA",
    "lat": 53.356,
    "lng": -110.824
  },
  "CYVM": {
    "name": "QIKIQTARJUAQ",
    "city": "BROUGHTON ISLAND",
    "country": "CANADA",
    "lat": 67.546,
    "lng": -64.031
  },
  "CYVO": {
    "name": "VAL D OR",
    "city": "VAL D'OR",
    "country": "CANADA",
    "lat": 48.053,
    "lng": -77.783
  },
  "CYVP": {
    "name": "KUUJJUAQ",
    "city": "QUUJJUAQ",
    "country": "CANADA",
    "lat": 58.096,
    "lng": -68.427
  },
  "CYVQ": {
    "name": "NORMAN WELLS",
    "city": "NORMAN WELLS",
    "country": "CANADA",
    "lat": 65.282,
    "lng": -126.8
  },
  "CYVR": {
    "name": "VANCOUVER INTERNATIONAL",
    "city": "VANCOUVER",
    "country": "CANADA",
    "lat": 49.195,
    "lng": -123.182
  },
  "CYVT": {
    "name": "BUFFALO NARROWS",
    "city": "BUFFALO NARROWS",
    "country": "CANADA",
    "lat": 55.842,
    "lng": -108.418
  },
  "CYVV": {
    "name": "WIARTON",
    "city": "WIARTON",
    "country": "CANADA",
    "lat": 44.746,
    "lng": -81.107
  },
  "CYWA": {
    "name": "PETAWAWA",
    "city": "PETAWAWA",
    "country": "CANADA",
    "lat": 45.952,
    "lng": -77.319
  },
  "CYWG": {
    "name": "WINNIPEG INTERNATIONAL",
    "city": "WINNIPEG",
    "country": "CANADA",
    "lat": 49.91,
    "lng": -97.234
  },
  "CYWK": {
    "name": "WABUSH",
    "city": "WABUSH",
    "country": "CANADA",
    "lat": 52.922,
    "lng": -66.864
  },
  "CYWL": {
    "name": "WILLIAMS LAKE",
    "city": "WILLIAMS LAKE",
    "country": "CANADA",
    "lat": 52.183,
    "lng": -122.054
  },
  "CYWY": {
    "name": "WRIGLEY",
    "city": "WRIGLEY",
    "country": "CANADA",
    "lat": 63.209,
    "lng": -123.437
  },
  "CYXC": {
    "name": "CRANBROOK",
    "city": "CRANBROOK",
    "country": "CANADA",
    "lat": 49.61,
    "lng": -115.782
  },
  "CYXD": {
    "name": "EDMONTON CITY CENTRE",
    "city": "EDMONTON",
    "country": "CANADA",
    "lat": 53.573,
    "lng": -113.521
  },
  "CYXE": {
    "name": "SASKATOON J G DIEFENBAKER INTERNATIONAL",
    "city": "SASKATOON",
    "country": "CANADA",
    "lat": 52.171,
    "lng": -106.7
  },
  "CYXH": {
    "name": "MEDICINE HAT",
    "city": "MEDICINE HAT",
    "country": "CANADA",
    "lat": 50.019,
    "lng": -110.721
  },
  "CYXJ": {
    "name": "FORT ST JOHN",
    "city": "FORT SAINT JOHN",
    "country": "CANADA",
    "lat": 56.238,
    "lng": -120.74
  },
  "CYXL": {
    "name": "SIOUX LOOKOUT",
    "city": "SIOUX LOOKOUT",
    "country": "CANADA",
    "lat": 50.114,
    "lng": -91.904
  },
  "CYXP": {
    "name": "PANGNIRTUNG",
    "city": "PANGNIRTUNG",
    "country": "CANADA",
    "lat": 66.145,
    "lng": -65.714
  },
  "CYXR": {
    "name": "TIMISKAMING RGNL",
    "city": "EARLTON",
    "country": "CANADA",
    "lat": 47.695,
    "lng": -79.849
  },
  "CYXS": {
    "name": "PRINCE GEORGE",
    "city": "PRINCE GEORGE",
    "country": "CANADA",
    "lat": 53.889,
    "lng": -122.679
  },
  "CYXT": {
    "name": "TERRACE",
    "city": "TERRACE",
    "country": "CANADA",
    "lat": 54.466,
    "lng": -128.577
  },
  "CYXU": {
    "name": "LONDON",
    "city": "LONDON",
    "country": "CANADA",
    "lat": 43.036,
    "lng": -81.154
  },
  "CYXX": {
    "name": "ABBOTSFORD",
    "city": "ABBOTSFORD",
    "country": "CANADA",
    "lat": 49.025,
    "lng": -122.363
  },
  "CYXY": {
    "name": "WHITEHORSE INTERNATIONAL",
    "city": "WHITEHORSE",
    "country": "CANADA",
    "lat": 60.709,
    "lng": -135.068
  },
  "CYYB": {
    "name": "NORTH BAY",
    "city": "NORTH BAY",
    "country": "CANADA",
    "lat": 46.364,
    "lng": -79.423
  },
  "CYYC": {
    "name": "CALGARY INTERNATIONAL",
    "city": "CALGARY",
    "country": "CANADA",
    "lat": 51.114,
    "lng": -114.02
  },
  "CYYD": {
    "name": "SMITHERS",
    "city": "SMITHERS",
    "country": "CANADA",
    "lat": 54.825,
    "lng": -127.183
  },
  "CYYE": {
    "name": "FORT NELSON",
    "city": "FORT NELSON",
    "country": "CANADA",
    "lat": 58.836,
    "lng": -122.597
  },
  "CYYF": {
    "name": "PENTICTON",
    "city": "PENTICTON",
    "country": "CANADA",
    "lat": 49.463,
    "lng": -119.602
  },
  "CYYG": {
    "name": "CHARLOTTETOWN",
    "city": "CHARLOTTETOWN",
    "country": "CANADA",
    "lat": 46.29,
    "lng": -63.121
  },
  "CYYH": {
    "name": "TALOYOAK",
    "city": "SPENCE BAY",
    "country": "CANADA",
    "lat": 69.547,
    "lng": -93.577
  },
  "CYYJ": {
    "name": "VICTORIA INTERNATIONAL",
    "city": "VICTORIA",
    "country": "CANADA",
    "lat": 48.647,
    "lng": -123.426
  },
  "CYYL": {
    "name": "LYNN LAKE",
    "city": "LYNN LAKE",
    "country": "CANADA",
    "lat": 56.864,
    "lng": -101.076
  },
  "CYYN": {
    "name": "SWIFT CURRENT",
    "city": "SWIFT CURRENT",
    "country": "CANADA",
    "lat": 50.292,
    "lng": -107.691
  },
  "CYYQ": {
    "name": "CHURCHILL",
    "city": "CHURCHILL",
    "country": "CANADA",
    "lat": 58.739,
    "lng": -94.065
  },
  "CYYR": {
    "name": "GOOSE BAY",
    "city": "GOOSE BAY",
    "country": "CANADA",
    "lat": 53.319,
    "lng": -60.426
  },
  "CYYT": {
    "name": "ST JOHNS INTERNATIONAL",
    "city": "ST. JOHN'S",
    "country": "CANADA",
    "lat": 47.619,
    "lng": -52.752
  },
  "CYYU": {
    "name": "KAPUSKASING",
    "city": "KAPUSKASING",
    "country": "CANADA",
    "lat": 49.414,
    "lng": -82.468
  },
  "CYYW": {
    "name": "ARMSTRONG",
    "city": "ARMSTRONG",
    "country": "CANADA",
    "lat": 50.29,
    "lng": -88.91
  },
  "CYYY": {
    "name": "MONT JOLI",
    "city": "MONT JOLI",
    "country": "CANADA",
    "lat": 48.609,
    "lng": -68.208
  },
  "CYYZ": {
    "name": "LESTER B PEARSON INTERNATIONAL",
    "city": "TORONTO",
    "country": "CANADA",
    "lat": 43.677,
    "lng": -79.631
  },
  "CYZD": {
    "name": "DOWNSVIEW",
    "city": "TORONTO",
    "country": "CANADA",
    "lat": 43.742,
    "lng": -79.466
  },
  "CYZE": {
    "name": "GORE BAY MANITOULIN",
    "city": "GORE BAY",
    "country": "CANADA",
    "lat": 45.885,
    "lng": -82.568
  },
  "CYZF": {
    "name": "YELLOWKNIFE",
    "city": "YELLOWKNIFE",
    "country": "CANADA",
    "lat": 62.463,
    "lng": -114.44
  },
  "CYZH": {
    "name": "SLAVE LAKE",
    "city": "SLAVE LAKE",
    "country": "CANADA",
    "lat": 55.293,
    "lng": -114.778
  },
  "CYZP": {
    "name": "SANDSPIT",
    "city": "SANDSPIT",
    "country": "CANADA",
    "lat": 53.254,
    "lng": -131.814
  },
  "CYZR": {
    "name": "CHRIS HADFIELD",
    "city": "SARNIA",
    "country": "CANADA",
    "lat": 42.999,
    "lng": -82.309
  },
  "CYZT": {
    "name": "PORT HARDY",
    "city": "PORT HARDY",
    "country": "CANADA",
    "lat": 50.681,
    "lng": -127.367
  },
  "CYZU": {
    "name": "WHITECOURT",
    "city": "WHITECOURT",
    "country": "CANADA",
    "lat": 54.144,
    "lng": -115.787
  },
  "CYZV": {
    "name": "SEPT ILES",
    "city": "SEPT-ILES",
    "country": "CANADA",
    "lat": 50.223,
    "lng": -66.266
  },
  "CYZW": {
    "name": "TESLIN",
    "city": "TESLIN",
    "country": "CANADA",
    "lat": 60.173,
    "lng": -132.743
  },
  "CYZX": {
    "name": "GREENWOOD",
    "city": "GREENWOOD",
    "country": "CANADA",
    "lat": 44.984,
    "lng": -64.917
  },
  "CZFA": {
    "name": "FARO",
    "city": "FARO",
    "country": "CANADA",
    "lat": 62.208,
    "lng": -133.376
  },
  "CZFM": {
    "name": "FORT MCPHERSON",
    "city": "FORT MCPHERSON",
    "country": "CANADA",
    "lat": 67.408,
    "lng": -134.86
  },
  "DAAB": {
    "name": "BLIDA",
    "city": "BLIDA",
    "country": "ALGERIA",
    "lat": 36.504,
    "lng": 2.814
  },
  "DAAD": {
    "name": "BOU SAADA",
    "city": "BOU SAADA",
    "country": "ALGERIA",
    "lat": 35.333,
    "lng": 4.206
  },
  "DAAE": {
    "name": "SOUMMAM",
    "city": "BEJAJA",
    "country": "ALGERIA",
    "lat": 36.712,
    "lng": 5.07
  },
  "DAAG": {
    "name": "HOUARI BOUMEDIENE",
    "city": "ALGIER",
    "country": "ALGERIA",
    "lat": 36.691,
    "lng": 3.215
  },
  "DAAJ": {
    "name": "TISKA",
    "city": "DJANET",
    "country": "ALGERIA",
    "lat": 24.293,
    "lng": 9.452
  },
  "DAAK": {
    "name": "BOUFARIK",
    "city": "BOUFARIK",
    "country": "ALGERIA",
    "lat": 36.546,
    "lng": 2.876
  },
  "DAAM": {
    "name": "TELERGHMA",
    "city": "TELERGMA",
    "country": "ALGERIA",
    "lat": 36.109,
    "lng": 6.364
  },
  "DAAN": {
    "name": "REGGANE",
    "city": "REGGAN",
    "country": "ALGERIA",
    "lat": 26.71,
    "lng": 0.286
  },
  "DAAP": {
    "name": "ILLIZI",
    "city": "ILLIZI",
    "country": "ALGERIA",
    "lat": 26.573,
    "lng": 8.484
  },
  "DAAQ": {
    "name": "AIN OUSSERA",
    "city": "AIN OUSSERA",
    "country": "ALGERIA",
    "lat": 35.525,
    "lng": 2.879
  },
  "DAAS": {
    "name": "SETIF AIN ARNAT",
    "city": "SETIF",
    "country": "ALGERIA",
    "lat": 36.178,
    "lng": 5.324
  },
  "DAAT": {
    "name": "TAMANRASSET",
    "city": "TAMANRASSET",
    "country": "ALGERIA",
    "lat": 22.811,
    "lng": 5.451
  },
  "DAAV": {
    "name": "JIJEL",
    "city": "JIJEL",
    "country": "ALGERIA",
    "lat": 36.795,
    "lng": 5.873
  },
  "DAAY": {
    "name": "MECHERIA",
    "city": "MECHERIA",
    "country": "ALGERIA",
    "lat": 33.536,
    "lng": -0.242
  },
  "DAAZ": {
    "name": "RELIZANE",
    "city": "RELIZANE",
    "country": "ALGERIA",
    "lat": 35.752,
    "lng": 0.626
  },
  "DABB": {
    "name": "ANNABA",
    "city": "ANNABA",
    "country": "ALGERIA",
    "lat": 36.822,
    "lng": 7.809
  },
  "DABC": {
    "name": "MOHAMED BOUDIAF INTERNATIONAL",
    "city": "CONSTANTINE",
    "country": "ALGERIA",
    "lat": 36.277,
    "lng": 6.624
  },
  "DABS": {
    "name": "CHEIKH LARBI TEBESSI",
    "city": "TEBESSA",
    "country": "ALGERIA",
    "lat": 35.431,
    "lng": 8.121
  },
  "DAFH": {
    "name": "HASSI R MEL",
    "city": "TILREMPT",
    "country": "ALGERIA",
    "lat": 32.93,
    "lng": 3.312
  },
  "DAOB": {
    "name": "BOU CHEKIF",
    "city": "TIARET",
    "country": "ALGERIA",
    "lat": 35.341,
    "lng": 1.463
  },
  "DAOE": {
    "name": "BOU SFER",
    "city": "BOU SFER",
    "country": "ALGERIA",
    "lat": 35.735,
    "lng": -0.805
  },
  "DAOF": {
    "name": "TINDOUF",
    "city": "TINDOUF",
    "country": "ALGERIA",
    "lat": 27.7,
    "lng": -8.167
  },
  "DAOI": {
    "name": "ECH CHELIFF",
    "city": "ECH-CHELIFF",
    "country": "ALGERIA",
    "lat": 36.213,
    "lng": 1.332
  },
  "DAOL": {
    "name": "TAFARAOUI",
    "city": "ORAN",
    "country": "ALGERIA",
    "lat": 35.542,
    "lng": -0.532
  },
  "DAON": {
    "name": "ZENATA",
    "city": "TLEMCEN",
    "country": "ALGERIA",
    "lat": 35.017,
    "lng": -1.45
  },
  "DAOO": {
    "name": "ES SENIA",
    "city": "ORAN",
    "country": "ALGERIA",
    "lat": 35.624,
    "lng": -0.621
  },
  "DAOS": {
    "name": "SIDI BEL ABBES",
    "city": "SIDI BEL ABBES",
    "country": "ALGERIA",
    "lat": 35.172,
    "lng": -0.593
  },
  "DAOV": {
    "name": "GHRISS",
    "city": "GHRISS",
    "country": "ALGERIA",
    "lat": 35.208,
    "lng": 0.147
  },
  "DAUA": {
    "name": "TOUAT CHEIKH SIDI MOHAMED BELKEBIR",
    "city": "ADRAR",
    "country": "ALGERIA",
    "lat": 27.837,
    "lng": -0.186
  },
  "DAUB": {
    "name": "BISKRA",
    "city": "BISKRA",
    "country": "ALGERIA",
    "lat": 34.793,
    "lng": 5.738
  },
  "DAUE": {
    "name": "EL GOLEA",
    "city": "EL GOLEA",
    "country": "ALGERIA",
    "lat": 30.571,
    "lng": 2.859
  },
  "DAUG": {
    "name": "NOUMERATE",
    "city": "GHARDAIA",
    "country": "ALGERIA",
    "lat": 32.384,
    "lng": 3.794
  },
  "DAUH": {
    "name": "OUED IRARA",
    "city": "HASSI-MESSAOUD",
    "country": "ALGERIA",
    "lat": 31.673,
    "lng": 6.14
  },
  "DAUI": {
    "name": "IN SALAH",
    "city": "IN SALAH",
    "country": "ALGERIA",
    "lat": 27.251,
    "lng": 2.512
  },
  "DAUK": {
    "name": "SIDI MAHDI",
    "city": "TOUGGOURT",
    "country": "ALGERIA",
    "lat": 33.068,
    "lng": 6.089
  },
  "DAUL": {
    "name": "LAGHOUAT",
    "city": "LAGHOUAT",
    "country": "ALGERIA",
    "lat": 33.764,
    "lng": 2.927
  },
  "DAUT": {
    "name": "TIMIMOUN",
    "city": "TIMIMOUN",
    "country": "ALGERIA",
    "lat": 29.237,
    "lng": 0.276
  },
  "DAUU": {
    "name": "OUARGLA",
    "city": "OUARGLA",
    "country": "ALGERIA",
    "lat": 31.917,
    "lng": 5.413
  },
  "DAUZ": {
    "name": "IN AMENAS",
    "city": "ZARZAITINE",
    "country": "ALGERIA",
    "lat": 28.051,
    "lng": 9.643
  },
  "DBBB": {
    "name": "COTONOU CADJEHOUN",
    "city": "COTONOU",
    "country": "BENIN",
    "lat": 6.357,
    "lng": 2.384
  },
  "DBBP": {
    "name": "PARAKOU",
    "city": "PARAKOU",
    "country": "BENIN",
    "lat": 9.357,
    "lng": 2.609
  },
  "DFFD": {
    "name": "OUAGADOUGOU",
    "city": "OUAGADOUGOU",
    "country": "BURKINA FASO",
    "lat": 12.353,
    "lng": -1.512
  },
  "DFOO": {
    "name": "BOBO DIOULASSO",
    "city": "BOBO-DIOULASSO",
    "country": "BURKINA FASO",
    "lat": 11.16,
    "lng": -4.331
  },
  "DGAA": {
    "name": "KOTOKA INTERNATIONAL",
    "city": "ACCRA",
    "country": "GHANA",
    "lat": 5.603,
    "lng": -0.168
  },
  "DGLE": {
    "name": "TAMALE",
    "city": "TAMALE",
    "country": "GHANA",
    "lat": 9.563,
    "lng": -0.863
  },
  "DGLW": {
    "name": "WA",
    "city": "WA",
    "country": "GHANA",
    "lat": 10.082,
    "lng": -2.507
  },
  "DGSN": {
    "name": "SUNYANI",
    "city": "SUNYANI",
    "country": "GHANA",
    "lat": 7.362,
    "lng": -2.329
  },
  "DGTK": {
    "name": "TAKORADI",
    "city": "TAKORADI",
    "country": "GHANA",
    "lat": 4.893,
    "lng": -1.775
  },
  "DIAP": {
    "name": "ABIDJAN FELIX HOUPHOUET BOIGNY INTERNATIONAL",
    "city": "ABIDJAN",
    "country": "IVORY COAST",
    "lat": 5.26,
    "lng": -3.926
  },
  "DIBK": {
    "name": "BOUAKE",
    "city": "BOUAKE",
    "country": "IVORY COAST",
    "lat": 7.739,
    "lng": -5.074
  },
  "DIDL": {
    "name": "DALOA",
    "city": "DALOA",
    "country": "IVORY COAST",
    "lat": 6.792,
    "lng": -6.473
  },
  "DIKO": {
    "name": "KORHOGO",
    "city": "KORHOGO",
    "country": "IVORY COAST",
    "lat": 9.387,
    "lng": -5.556
  },
  "DIMN": {
    "name": "MAN",
    "city": "MAN",
    "country": "IVORY COAST",
    "lat": 7.272,
    "lng": -7.587
  },
  "DISP": {
    "name": "SAN PEDRO",
    "city": "SAN PEDRO",
    "country": "IVORY COAST",
    "lat": 4.747,
    "lng": -6.661
  },
  "DIYO": {
    "name": "YAMOUSSOUKRO",
    "city": "YAMOUSSOUKRO",
    "country": "IVORY COAST",
    "lat": 6.903,
    "lng": -5.366
  },
  "DNAA": {
    "name": "ABUJA NNAMDI AZIKIWE INTERNATIONAL",
    "city": "ABUJA",
    "country": "NIGERIA",
    "lat": 9.007,
    "lng": 7.263
  },
  "DNAK": {
    "name": "AKURE",
    "city": "AKURE",
    "country": "NIGERIA",
    "lat": 7.247,
    "lng": 5.301
  },
  "DNBE": {
    "name": "BENIN",
    "city": "BENIN",
    "country": "NIGERIA",
    "lat": 6.317,
    "lng": 5.599
  },
  "DNCA": {
    "name": "CALABAR",
    "city": "CALABAR",
    "country": "NIGERIA",
    "lat": 4.976,
    "lng": 8.347
  },
  "DNEN": {
    "name": "ENUGU",
    "city": "ENUGU",
    "country": "NIGERIA",
    "lat": 6.474,
    "lng": 7.562
  },
  "DNGU": {
    "name": "GUSAU",
    "city": "GUSAU",
    "country": "NIGERIA",
    "lat": 12.172,
    "lng": 6.696
  },
  "DNIB": {
    "name": "IBADAN",
    "city": "IBADAN",
    "country": "NIGERIA",
    "lat": 7.362,
    "lng": 3.978
  },
  "DNIL": {
    "name": "ILORIN",
    "city": "ILORIN",
    "country": "NIGERIA",
    "lat": 8.44,
    "lng": 4.494
  },
  "DNJO": {
    "name": "JOS",
    "city": "JOS",
    "country": "NIGERIA",
    "lat": 9.64,
    "lng": 8.869
  },
  "DNKA": {
    "name": "KADUNA",
    "city": "KADUNA",
    "country": "NIGERIA",
    "lat": 10.696,
    "lng": 7.32
  },
  "DNKN": {
    "name": "KANO MALLAM AMINU INTERNATIONAL",
    "city": "KANO",
    "country": "NIGERIA",
    "lat": 12.047,
    "lng": 8.524
  },
  "DNMA": {
    "name": "MAIDUGURI",
    "city": "MAIDUGURI",
    "country": "NIGERIA",
    "lat": 11.855,
    "lng": 13.081
  },
  "DNMK": {
    "name": "MAKURDI",
    "city": "MAKURDI",
    "country": "NIGERIA",
    "lat": 7.704,
    "lng": 8.614
  },
  "DNMM": {
    "name": "LAGOS MURTALA MUHAMMED",
    "city": "LAGOS",
    "country": "NIGERIA",
    "lat": 6.577,
    "lng": 3.321
  },
  "DNMN": {
    "name": "MINNA NEW",
    "city": "MINNA",
    "country": "NIGERIA",
    "lat": 9.652,
    "lng": 6.462
  },
  "DNPO": {
    "name": "PORT HARCOURT INTERNATIONAL",
    "city": "PORT HARTCOURT",
    "country": "NIGERIA",
    "lat": 5.015,
    "lng": 6.949
  },
  "DNSO": {
    "name": "SADIQ ABUBAKAR III INTERNATIONAL",
    "city": "SOKOTO",
    "country": "NIGERIA",
    "lat": 12.916,
    "lng": 5.207
  },
  "DNYO": {
    "name": "YOLA",
    "city": "YOLA",
    "country": "NIGERIA",
    "lat": 9.26,
    "lng": 12.43
  },
  "DNZA": {
    "name": "ZARIA",
    "city": "ZARIA",
    "country": "NIGERIA",
    "lat": 11.13,
    "lng": 7.686
  },
  "DRRM": {
    "name": "MARADI",
    "city": "MARADI",
    "country": "NIGER",
    "lat": 13.502,
    "lng": 7.127
  },
  "DRRN": {
    "name": "DIORI HAMANI",
    "city": "NIAMEY",
    "country": "NIGER",
    "lat": 13.481,
    "lng": 2.184
  },
  "DRRT": {
    "name": "TAHOUA",
    "city": "TAHOUA",
    "country": "NIGER",
    "lat": 14.876,
    "lng": 5.265
  },
  "DRZA": {
    "name": "MANU DAYAK",
    "city": "AGADEZ",
    "country": "NIGER",
    "lat": 16.965,
    "lng": 7.997
  },
  "DRZD": {
    "name": "DIRKOU",
    "city": "DIRKOU",
    "country": "NIGER",
    "lat": 18.969,
    "lng": 12.869
  },
  "DRZF": {
    "name": "DIFFA",
    "city": "DIFFA",
    "country": "NIGER",
    "lat": 13.373,
    "lng": 12.627
  },
  "DRZR": {
    "name": "ZINDER",
    "city": "ZINDER",
    "country": "NIGER",
    "lat": 13.779,
    "lng": 8.984
  },
  "DRZT": {
    "name": "TANOUT",
    "city": "TANOUT",
    "country": "NIGER",
    "lat": 14.999,
    "lng": 8.767
  },
  "DTMB": {
    "name": "HABIB BOURGUIBA INTERNATIONAL",
    "city": "MONASTIR",
    "country": "TUNISIA",
    "lat": 35.758,
    "lng": 10.755
  },
  "DTTA": {
    "name": "CARTHAGE",
    "city": "TUNIS",
    "country": "TUNISIA",
    "lat": 36.851,
    "lng": 10.227
  },
  "DTTB": {
    "name": "SIDI AHMED AIR BASE",
    "city": "BIZERTE",
    "country": "TUNISIA",
    "lat": 37.245,
    "lng": 9.791
  },
  "DTTD": {
    "name": "REMADA",
    "city": "REMADA",
    "country": "TUNISIA",
    "lat": 32.306,
    "lng": 10.382
  },
  "DTTF": {
    "name": "GAFSA",
    "city": "GAFSA",
    "country": "TUNISIA",
    "lat": 34.422,
    "lng": 8.822
  },
  "DTTG": {
    "name": "GABES",
    "city": "GABES",
    "country": "TUNISIA",
    "lat": 33.877,
    "lng": 10.103
  },
  "DTTI": {
    "name": "BORDJ EL AMRI",
    "city": "BORDJ EL AMRI",
    "country": "TUNISIA",
    "lat": 36.721,
    "lng": 9.943
  },
  "DTTJ": {
    "name": "ZARZIS",
    "city": "DJERBA",
    "country": "TUNISIA",
    "lat": 33.875,
    "lng": 10.775
  },
  "DTTR": {
    "name": "EL BORMA",
    "city": "EL BORMA",
    "country": "TUNISIA",
    "lat": 31.704,
    "lng": 9.254
  },
  "DTTX": {
    "name": "THYNA",
    "city": "SFAX",
    "country": "TUNISIA",
    "lat": 34.718,
    "lng": 10.691
  },
  "DTTZ": {
    "name": "NEFTA",
    "city": "TOZEUR",
    "country": "TUNISIA",
    "lat": 33.94,
    "lng": 8.111
  },
  "DXNG": {
    "name": "NIAMTOUGOU",
    "city": "NIATOUGOU",
    "country": "TOGO",
    "lat": 9.767,
    "lng": 1.091
  },
  "DXXX": {
    "name": "LOME TOKOIN",
    "city": "LOME",
    "country": "TOGO",
    "lat": 6.166,
    "lng": 1.254
  },
  "EBAW": {
    "name": "DEURNE",
    "city": "ANTWERP",
    "country": "BELGIUM",
    "lat": 51.19,
    "lng": 4.463
  },
  "EBBE": {
    "name": "BEAUVECHAIN",
    "city": "BEAUVECHAIN",
    "country": "BELGIUM",
    "lat": 50.759,
    "lng": 4.768
  },
  "EBBL": {
    "name": "KLEINE BROGEL",
    "city": "KLEINE BROGEL",
    "country": "BELGIUM",
    "lat": 51.168,
    "lng": 5.471
  },
  "EBBR": {
    "name": "BRUSSELS NATL",
    "city": "BRUSSELS",
    "country": "BELGIUM",
    "lat": 50.902,
    "lng": 4.499
  },
  "EBBT": {
    "name": "BRAASCHAAT",
    "city": "BRASSCHAAT",
    "country": "BELGIUM",
    "lat": 51.333,
    "lng": 4.5
  },
  "EBBX": {
    "name": "BERTRIX JEHONVILLE",
    "city": "BERTRIX",
    "country": "BELGIUM",
    "lat": 49.887,
    "lng": 5.229
  },
  "EBCI": {
    "name": "BRUSSELS SOUTH",
    "city": "CHARLEROI",
    "country": "BELGIUM",
    "lat": 50.459,
    "lng": 4.454
  },
  "EBCV": {
    "name": "CHIEVRES AB",
    "city": "CHIEVRES",
    "country": "BELGIUM",
    "lat": 50.576,
    "lng": 3.831
  },
  "EBFN": {
    "name": "KOKSIJDE",
    "city": "KOKSIJDE",
    "country": "BELGIUM",
    "lat": 51.09,
    "lng": 2.653
  },
  "EBFS": {
    "name": "FLORENNES",
    "city": "FLORENNES",
    "country": "BELGIUM",
    "lat": 50.244,
    "lng": 4.649
  },
  "EBKT": {
    "name": "WEVELGEM",
    "city": "KORTRIJK-VEVELGEM",
    "country": "BELGIUM",
    "lat": 50.818,
    "lng": 3.208
  },
  "EBLG": {
    "name": "LIEGE",
    "city": "LIEGE",
    "country": "BELGIUM",
    "lat": 50.637,
    "lng": 5.443
  },
  "EBOS": {
    "name": "OOSTENDE",
    "city": "OSTEND",
    "country": "BELGIUM",
    "lat": 51.199,
    "lng": 2.862
  },
  "EBSL": {
    "name": "ZUTENDAAL",
    "city": "ZUTENDAAL",
    "country": "BELGIUM",
    "lat": 50.948,
    "lng": 5.592
  },
  "EBST": {
    "name": "ST TRUIDEN",
    "city": "SINT-TRUIDEN",
    "country": "BELGIUM",
    "lat": 50.788,
    "lng": 5.193
  },
  "EBUL": {
    "name": "URSEL",
    "city": "URSEL",
    "country": "BELGIUM",
    "lat": 51.144,
    "lng": 3.474
  },
  "EBWE": {
    "name": "WEELDE",
    "city": "WEELDE",
    "country": "BELGIUM",
    "lat": 51.395,
    "lng": 4.961
  },
  "EBZR": {
    "name": "ZOERSEL",
    "city": "ZOERSEL",
    "country": "BELGIUM",
    "lat": 51.266,
    "lng": 4.755
  },
  "EDAB": {
    "name": "BAUTZEN",
    "city": "BAUTZEN",
    "country": "GERMANY",
    "lat": 51.193,
    "lng": 14.52
  },
  "EDAC": {
    "name": "ALTENBURG NOBITZ",
    "city": "ALTENBURG",
    "country": "GERMANY",
    "lat": 50.982,
    "lng": 12.506
  },
  "EDAD": {
    "name": "DESSAU",
    "city": "DESSAU",
    "country": "GERMANY",
    "lat": 51.832,
    "lng": 12.186
  },
  "EDAE": {
    "name": "EISENHUTTENSTADT",
    "city": "EISENHUETTENSTADT",
    "country": "GERMANY",
    "lat": 52.197,
    "lng": 14.586
  },
  "EDAH": {
    "name": "HERINGSDORF",
    "city": "HERINGSDORF",
    "country": "GERMANY",
    "lat": 53.879,
    "lng": 14.152
  },
  "EDAK": {
    "name": "GROSSENHAIN",
    "city": "SUHL",
    "country": "GERMANY",
    "lat": 51.308,
    "lng": 13.555
  },
  "EDAM": {
    "name": "MERSEBURG",
    "city": "MUEHLHAUSEN",
    "country": "GERMANY",
    "lat": 51.363,
    "lng": 11.941
  },
  "EDAQ": {
    "name": "HALLE OPPIN",
    "city": "HALLE",
    "country": "GERMANY",
    "lat": 51.552,
    "lng": 12.053
  },
  "EDAU": {
    "name": "RIESA GOHLIS",
    "city": "RIESA",
    "country": "GERMANY",
    "lat": 51.294,
    "lng": 13.359
  },
  "EDAX": {
    "name": "RECHLIN LARZ",
    "city": "RECHLIN-LAERZ",
    "country": "GERMANY",
    "lat": 53.306,
    "lng": 12.753
  },
  "EDAY": {
    "name": "STRAUSBERG",
    "city": "STRAUSBERG",
    "country": "GERMANY",
    "lat": 52.58,
    "lng": 13.916
  },
  "EDAZ": {
    "name": "SCHONHAGEN",
    "city": "SCHOENHAGEN",
    "country": "GERMANY",
    "lat": 52.203,
    "lng": 13.159
  },
  "EDBC": {
    "name": "COCHSTEDT SCHNEIDLINGEN",
    "city": "COCHSTEDT",
    "country": "GERMANY",
    "lat": 51.856,
    "lng": 11.418
  },
  "EDBG": {
    "name": "GOLDSBORO WAYNE MUNI",
    "city": "GOTHA OST",
    "country": "GERMANY",
    "lat": 35.461,
    "lng": -77.965
  },
  "EDBH": {
    "name": "BARTH",
    "city": "BARTH",
    "country": "GERMANY",
    "lat": 54.338,
    "lng": 12.71
  },
  "EDBJ": {
    "name": "JENA SCHONGLEINA",
    "city": "JENA",
    "country": "GERMANY",
    "lat": 50.917,
    "lng": 11.714
  },
  "EDBK": {
    "name": "KYRITZ",
    "city": "KYRITZ",
    "country": "GERMANY",
    "lat": 52.919,
    "lng": 12.425
  },
  "EDBM": {
    "name": "MAGDEBURG",
    "city": "MAGDEBURG",
    "country": "GERMANY",
    "lat": 52.074,
    "lng": 11.626
  },
  "EDBN": {
    "name": "BRANDIS WALDPOLENZ",
    "city": "NEUBRANDENBURG",
    "country": "GERMANY",
    "lat": 51.328,
    "lng": 12.657
  },
  "EDBR": {
    "name": "ROTHENBURG GORLITZ",
    "city": "ROTHENBURG/OL",
    "country": "GERMANY",
    "lat": 51.364,
    "lng": 14.952
  },
  "EDCA": {
    "name": "ANKLAM",
    "city": "ANKLAM",
    "country": "GERMANY",
    "lat": 53.833,
    "lng": 13.669
  },
  "EDCD": {
    "name": "COTTBUS DREWITZ",
    "city": "COTTBUS",
    "country": "GERMANY",
    "lat": 51.889,
    "lng": 14.532
  },
  "EDCK": {
    "name": "KOTHEN",
    "city": "KOETHEN",
    "country": "GERMANY",
    "lat": 51.721,
    "lng": 11.962
  },
  "EDCM": {
    "name": "KAMENZ",
    "city": "KAMENZ",
    "country": "GERMANY",
    "lat": 51.296,
    "lng": 14.129
  },
  "EDDB": {
    "name": "SCHONEFELD",
    "city": "BERLIN",
    "country": "GERMANY",
    "lat": 52.38,
    "lng": 13.523
  },
  "EDDC": {
    "name": "DRESDEN",
    "city": "DRESDEN",
    "country": "GERMANY",
    "lat": 51.133,
    "lng": 13.767
  },
  "EDDE": {
    "name": "ERFURT",
    "city": "ERFURT",
    "country": "GERMANY",
    "lat": 50.98,
    "lng": 10.958
  },
  "EDDF": {
    "name": "FRANKFURT MAIN",
    "city": "FRANKFURT",
    "country": "GERMANY",
    "lat": 50.026,
    "lng": 8.543
  },
  "EDDG": {
    "name": "MUNSTER OSNABRUCK",
    "city": "MUENSTER/OSNABRUECK",
    "country": "GERMANY",
    "lat": 52.134,
    "lng": 7.685
  },
  "EDDH": {
    "name": "HAMBURG",
    "city": "HAMBURG",
    "country": "GERMANY",
    "lat": 53.63,
    "lng": 9.988
  },
  "EDDI": {
    "name": "TEMPELHOF",
    "city": "BERLIN",
    "country": "GERMANY",
    "lat": 52.473,
    "lng": 13.404
  },
  "EDDK": {
    "name": "KOLN BONN",
    "city": "COLOGNE",
    "country": "GERMANY",
    "lat": 50.866,
    "lng": 7.143
  },
  "EDDL": {
    "name": "DUSSELDORF",
    "city": "DUESSELDORF",
    "country": "GERMANY",
    "lat": 51.289,
    "lng": 6.767
  },
  "EDDM": {
    "name": "MUNICH",
    "city": "MUNICH",
    "country": "GERMANY",
    "lat": 48.354,
    "lng": 11.786
  },
  "EDDN": {
    "name": "NURNBERG",
    "city": "NUERNBERG",
    "country": "GERMANY",
    "lat": 49.499,
    "lng": 11.078
  },
  "EDDP": {
    "name": "LEIPZIG HALLE",
    "city": "LEIPZIG",
    "country": "GERMANY",
    "lat": 51.424,
    "lng": 12.236
  },
  "EDDR": {
    "name": "SAARBRUCKEN",
    "city": "SAARBRUECKEN",
    "country": "GERMANY",
    "lat": 49.214,
    "lng": 7.109
  },
  "EDDS": {
    "name": "STUTTGART",
    "city": "STUTTGART",
    "country": "GERMANY",
    "lat": 48.69,
    "lng": 9.222
  },
  "EDDT": {
    "name": "TEGEL",
    "city": "BERLIN",
    "country": "GERMANY",
    "lat": 52.559,
    "lng": 13.287
  },
  "EDDV": {
    "name": "HANNOVER",
    "city": "HANNOVER",
    "country": "GERMANY",
    "lat": 52.461,
    "lng": 9.685
  },
  "EDDW": {
    "name": "BREMEN",
    "city": "BREMEN",
    "country": "GERMANY",
    "lat": 53.047,
    "lng": 8.787
  },
  "EDFE": {
    "name": "EGELSBACH",
    "city": "EGELSBACH",
    "country": "GERMANY",
    "lat": 49.961,
    "lng": 8.644
  },
  "EDFH": {
    "name": "FRANKFURT HAHN",
    "city": "HAHN",
    "country": "GERMANY",
    "lat": 49.95,
    "lng": 7.264
  },
  "EDFM": {
    "name": "MANNHEIM CITY",
    "city": "MANNHEIM",
    "country": "GERMANY",
    "lat": 49.473,
    "lng": 8.514
  },
  "EDFQ": {
    "name": "ALLENDORF EDER",
    "city": "ALLENDORF",
    "country": "GERMANY",
    "lat": 51.035,
    "lng": 8.679
  },
  "EDFV": {
    "name": "WORMS",
    "city": "WORMS",
    "country": "GERMANY",
    "lat": 49.606,
    "lng": 8.368
  },
  "EDFZ": {
    "name": "MAINZ FINTHEN",
    "city": "MAINZ",
    "country": "GERMANY",
    "lat": 49.969,
    "lng": 8.147
  },
  "EDGE": {
    "name": "EISENACH KINDEL",
    "city": "EISENACH",
    "country": "GERMANY",
    "lat": 50.993,
    "lng": 10.473
  },
  "EDGS": {
    "name": "SIEGERLAND",
    "city": "SIEGERLAND",
    "country": "GERMANY",
    "lat": 50.708,
    "lng": 8.082
  },
  "EDHI": {
    "name": "HAMBURG FINKENWERDER",
    "city": "HAMBURG",
    "country": "GERMANY",
    "lat": 53.535,
    "lng": 9.835
  },
  "EDHK": {
    "name": "KIEL HOLTENAU",
    "city": "KIEL",
    "country": "GERMANY",
    "lat": 54.379,
    "lng": 10.145
  },
  "EDHL": {
    "name": "LUBECK BLANKENSEE",
    "city": "LUEBECK",
    "country": "GERMANY",
    "lat": 53.805,
    "lng": 10.719
  },
  "EDKA": {
    "name": "AACHEN MERZBRUCK",
    "city": "AACHEN",
    "country": "GERMANY",
    "lat": 50.823,
    "lng": 6.187
  },
  "EDKV": {
    "name": "DAHLEMER BINZ",
    "city": "DAHLEMER BINZ",
    "country": "GERMANY",
    "lat": 50.406,
    "lng": 6.528
  },
  "EDKZ": {
    "name": "MEINERZHAGEN",
    "city": "MEINERZHAGEN",
    "country": "GERMANY",
    "lat": 51.099,
    "lng": 7.602
  },
  "EDLA": {
    "name": "ARNSBERG MENDEN",
    "city": "ARNSBERG",
    "country": "GERMANY",
    "lat": 51.483,
    "lng": 7.899
  },
  "EDLC": {
    "name": "KAMP LINTFORT",
    "city": "KAMP",
    "country": "GERMANY",
    "lat": 51.53,
    "lng": 6.537
  },
  "EDLE": {
    "name": "ESSEN MULHEIM",
    "city": "ESSEN",
    "country": "GERMANY",
    "lat": 51.401,
    "lng": 6.936
  },
  "EDLN": {
    "name": "MONCHENGLADBACH",
    "city": "MOENCHENGLADBACH",
    "country": "GERMANY",
    "lat": 51.23,
    "lng": 6.504
  },
  "EDLP": {
    "name": "PADERBORN LIPPSTADT",
    "city": "PADERBORN",
    "country": "GERMANY",
    "lat": 51.614,
    "lng": 8.616
  },
  "EDLS": {
    "name": "STADTLOHN VREDEN",
    "city": "STADTLOHN",
    "country": "GERMANY",
    "lat": 51.996,
    "lng": 6.84
  },
  "EDLW": {
    "name": "DORTMUND",
    "city": "DORTMUND",
    "country": "GERMANY",
    "lat": 51.518,
    "lng": 7.612
  },
  "EDMA": {
    "name": "AUGSBURG",
    "city": "AUGSBURG",
    "country": "GERMANY",
    "lat": 48.425,
    "lng": 10.932
  },
  "EDMB": {
    "name": "BIBERACH AN DER RISS",
    "city": "BIBERACH",
    "country": "GERMANY",
    "lat": 48.111,
    "lng": 9.763
  },
  "EDME": {
    "name": "EGGENFELDEN",
    "city": "EGGENFELDEN",
    "country": "GERMANY",
    "lat": 48.396,
    "lng": 12.724
  },
  "EDMO": {
    "name": "OBERPFAFFENHOFEN",
    "city": "OBERPFAFFENHOFEN",
    "country": "GERMANY",
    "lat": 48.081,
    "lng": 11.283
  },
  "EDMS": {
    "name": "STRAUBING",
    "city": "STRAUBING",
    "country": "GERMANY",
    "lat": 48.901,
    "lng": 12.518
  },
  "EDMV": {
    "name": "VILSHOFEN",
    "city": "VILSHOFEN",
    "country": "GERMANY",
    "lat": 48.636,
    "lng": 13.195
  },
  "EDNL": {
    "name": "LEUTKIRCH UNTERZEIL",
    "city": "LEUTKIRCH",
    "country": "GERMANY",
    "lat": 47.859,
    "lng": 10.014
  },
  "EDNY": {
    "name": "FRIEDRICHSHAFEN",
    "city": "FRIEDRICHSHAFEN",
    "country": "GERMANY",
    "lat": 47.671,
    "lng": 9.511
  },
  "EDOP": {
    "name": "SCHWERIN PARCHIM",
    "city": "PARCHIM",
    "country": "GERMANY",
    "lat": 53.427,
    "lng": 11.783
  },
  "EDOV": {
    "name": "STENDAL BORSTEL",
    "city": "STENDAL",
    "country": "GERMANY",
    "lat": 52.629,
    "lng": 11.82
  },
  "EDPA": {
    "name": "AALEN HEIDENHEIM ELCHINGEN",
    "city": "AALEN-HEIDENHEIM",
    "country": "GERMANY",
    "lat": 48.778,
    "lng": 10.264
  },
  "EDQC": {
    "name": "COBURG BRANDENSTEINSEBENE",
    "city": "COBURG",
    "country": "GERMANY",
    "lat": 50.263,
    "lng": 10.996
  },
  "EDQD": {
    "name": "BAYREUTH",
    "city": "BAYREUTH",
    "country": "GERMANY",
    "lat": 49.984,
    "lng": 11.638
  },
  "EDQE": {
    "name": "BURG FEUERSTEIN",
    "city": "BURG FEUERSTEIN",
    "country": "GERMANY",
    "lat": 49.794,
    "lng": 11.132
  },
  "EDQM": {
    "name": "HOF PLAUEN",
    "city": "HOF",
    "country": "GERMANY",
    "lat": 50.289,
    "lng": 11.855
  },
  "EDQP": {
    "name": "ROSENTHAL FIELD PLOSSEN",
    "city": "ROSENTHAL",
    "country": "GERMANY",
    "lat": 49.863,
    "lng": 11.788
  },
  "EDQT": {
    "name": "HASSFURT SCHWEINFURT",
    "city": "HASSFURT",
    "country": "GERMANY",
    "lat": 50.018,
    "lng": 10.529
  },
  "EDRK": {
    "name": "KOBLENZ WINNINGEN",
    "city": "KOBLENZ",
    "country": "GERMANY",
    "lat": 50.325,
    "lng": 7.531
  },
  "EDRT": {
    "name": "TRIER FOHREN",
    "city": "TRIER",
    "country": "GERMANY",
    "lat": 49.863,
    "lng": 6.789
  },
  "EDRY": {
    "name": "SPEYER",
    "city": "SPEYER",
    "country": "GERMANY",
    "lat": 49.302,
    "lng": 8.451
  },
  "EDRZ": {
    "name": "ZWEIBRUCKEN",
    "city": "ZWEIBRUECKEN",
    "country": "GERMANY",
    "lat": 49.209,
    "lng": 7.401
  },
  "EDTB": {
    "name": "BADEN OOS",
    "city": "BADEN-BADEN",
    "country": "GERMANY",
    "lat": 48.791,
    "lng": 8.187
  },
  "EDTD": {
    "name": "DONAUESCHINGEN VILLINGEN",
    "city": "DONAUESCHINGEN",
    "country": "GERMANY",
    "lat": 47.973,
    "lng": 8.522
  },
  "EDTF": {
    "name": "FREIBURG",
    "city": "FREIBURG",
    "country": "GERMANY",
    "lat": 48.02,
    "lng": 7.834
  },
  "EDTK": {
    "name": "KARLSRUHE FORCHHEIM",
    "city": "KARLSRUHE",
    "country": "GERMANY",
    "lat": 48.982,
    "lng": 8.333
  },
  "EDTM": {
    "name": "MENGEN HOHENTENGEN",
    "city": "MENGEN",
    "country": "GERMANY",
    "lat": 48.054,
    "lng": 9.373
  },
  "EDTY": {
    "name": "SCHWABISCH HALL HESSENTAL",
    "city": "SCHWAEBISCH HALL",
    "country": "GERMANY",
    "lat": 49.118,
    "lng": 9.777
  },
  "EDUS": {
    "name": "FINSTERWALDE SCHACKSDORF",
    "city": "SOEST",
    "country": "GERMANY",
    "lat": 51.608,
    "lng": 13.738
  },
  "EDVE": {
    "name": "BRAUNSCHWEIG",
    "city": "BRAUNSCHWEIG",
    "country": "GERMANY",
    "lat": 52.319,
    "lng": 10.556
  },
  "EDVK": {
    "name": "KASSEL CALDEN",
    "city": "KASSEL",
    "country": "GERMANY",
    "lat": 51.408,
    "lng": 9.378
  },
  "EDVM": {
    "name": "HILDESHEIM",
    "city": "HILDESHEIM",
    "country": "GERMANY",
    "lat": 52.177,
    "lng": 9.946
  },
  "EDWB": {
    "name": "BREMERHAVEN",
    "city": "BREMERHAVEN",
    "country": "GERMANY",
    "lat": 53.503,
    "lng": 8.573
  },
  "EDWD": {
    "name": "LEMWERDER",
    "city": "LEMWERDER",
    "country": "GERMANY",
    "lat": 53.143,
    "lng": 8.623
  },
  "EDWE": {
    "name": "EMDEN",
    "city": "EMDEN",
    "country": "GERMANY",
    "lat": 53.391,
    "lng": 7.227
  },
  "EDWF": {
    "name": "LEER PAPENBURG",
    "city": "LEER",
    "country": "GERMANY",
    "lat": 53.272,
    "lng": 7.443
  },
  "EDWI": {
    "name": "WILHELMSHAVEN MARIENSIEL",
    "city": "WILHELMSHAVEN",
    "country": "GERMANY",
    "lat": 53.505,
    "lng": 8.053
  },
  "EDWR": {
    "name": "BORKUM",
    "city": "BORKUM",
    "country": "GERMANY",
    "lat": 53.595,
    "lng": 6.709
  },
  "EDWY": {
    "name": "NORDERNEY",
    "city": "NORDERNEY",
    "country": "GERMANY",
    "lat": 53.707,
    "lng": 7.23
  },
  "EDXF": {
    "name": "FLENSBURG SCHAFERHAUS",
    "city": "FLENSBURG",
    "country": "GERMANY",
    "lat": 54.772,
    "lng": 9.378
  },
  "EDXR": {
    "name": "RENDSBURG SCHACHTHOLM",
    "city": "RENDSBURG",
    "country": "GERMANY",
    "lat": 54.221,
    "lng": 9.601
  },
  "EDXW": {
    "name": "WESTERLAND SYLT",
    "city": "WESTERLAND",
    "country": "GERMANY",
    "lat": 54.913,
    "lng": 8.34
  },
  "EEEI": {
    "name": "AMARI",
    "city": "ARMARI AIR FORCE BASE",
    "country": "ESTONIA",
    "lat": 59.259,
    "lng": 24.204
  },
  "EEKA": {
    "name": "KARDLA",
    "city": "KARDLA",
    "country": "ESTONIA",
    "lat": 58.991,
    "lng": 22.831
  },
  "EEKE": {
    "name": "KURESSAARE",
    "city": "KURESSAARE",
    "country": "ESTONIA",
    "lat": 58.23,
    "lng": 22.509
  },
  "EEPU": {
    "name": "PARNU",
    "city": "PARNU",
    "country": "ESTONIA",
    "lat": 58.419,
    "lng": 24.473
  },
  "EETN": {
    "name": "TALLINN",
    "city": "TALLINN-ULEMISTE INTERNATIONAL",
    "country": "ESTONIA",
    "lat": 59.413,
    "lng": 24.833
  },
  "EETU": {
    "name": "TARTU",
    "city": "TARTU-ULENURME",
    "country": "ESTONIA",
    "lat": 58.307,
    "lng": 26.69
  },
  "EFET": {
    "name": "ENONTEKIO",
    "city": "ENONTEKIO",
    "country": "FINLAND",
    "lat": 68.362,
    "lng": 23.424
  },
  "EFEU": {
    "name": "EURA",
    "city": "EURA",
    "country": "FINLAND",
    "lat": 61.116,
    "lng": 22.201
  },
  "EFHA": {
    "name": "HALLI",
    "city": "HALLI",
    "country": "FINLAND",
    "lat": 61.856,
    "lng": 24.786
  },
  "EFHF": {
    "name": "HELSINKI MALMI",
    "city": "HELSINKI",
    "country": "FINLAND",
    "lat": 60.254,
    "lng": 25.043
  },
  "EFHK": {
    "name": "HELSINKI VANTAA",
    "city": "HELSINKI",
    "country": "FINLAND",
    "lat": 60.32,
    "lng": 24.956
  },
  "EFHM": {
    "name": "HAMEENKYRO",
    "city": "HAMEENKYRO",
    "country": "FINLAND",
    "lat": 61.689,
    "lng": 23.074
  },
  "EFHN": {
    "name": "HANKO",
    "city": "HANKO",
    "country": "FINLAND",
    "lat": 59.849,
    "lng": 23.083
  },
  "EFHV": {
    "name": "HYVINKAA",
    "city": "HYVINKAA",
    "country": "FINLAND",
    "lat": 60.654,
    "lng": 24.881
  },
  "EFIK": {
    "name": "KIIKALA",
    "city": "KIKALA",
    "country": "FINLAND",
    "lat": 60.463,
    "lng": 23.652
  },
  "EFIM": {
    "name": "IMMOLA",
    "city": "IMMOLA",
    "country": "FINLAND",
    "lat": 61.249,
    "lng": 28.904
  },
  "EFIT": {
    "name": "KITEE",
    "city": "KITEE",
    "country": "FINLAND",
    "lat": 62.166,
    "lng": 30.074
  },
  "EFIV": {
    "name": "IVALO",
    "city": "IVALO",
    "country": "FINLAND",
    "lat": 68.607,
    "lng": 27.405
  },
  "EFJO": {
    "name": "JOENSUU",
    "city": "JOENSUU",
    "country": "FINLAND",
    "lat": 62.659,
    "lng": 29.624
  },
  "EFJY": {
    "name": "JYVASKYLA",
    "city": "JYVASKYLA",
    "country": "FINLAND",
    "lat": 62.399,
    "lng": 25.678
  },
  "EFKA": {
    "name": "KAUHAVA",
    "city": "KAUHAVA",
    "country": "FINLAND",
    "lat": 63.127,
    "lng": 23.051
  },
  "EFKE": {
    "name": "KEMI TORNIO",
    "city": "KEMI",
    "country": "FINLAND",
    "lat": 65.782,
    "lng": 24.599
  },
  "EFKI": {
    "name": "KAJAANI",
    "city": "KAJAANI",
    "country": "FINLAND",
    "lat": 64.285,
    "lng": 27.692
  },
  "EFKJ": {
    "name": "KAUHAJOKI",
    "city": "KAUHAJOKI",
    "country": "FINLAND",
    "lat": 62.463,
    "lng": 22.393
  },
  "EFKK": {
    "name": "KRUUNUPYY",
    "city": "KRUUNUPYY",
    "country": "FINLAND",
    "lat": 63.721,
    "lng": 23.143
  },
  "EFKM": {
    "name": "KEMIJARVI",
    "city": "KEMIJARVI",
    "country": "FINLAND",
    "lat": 66.713,
    "lng": 27.157
  },
  "EFKS": {
    "name": "KUUSAMO",
    "city": "KUUSAMO",
    "country": "FINLAND",
    "lat": 65.987,
    "lng": 29.239
  },
  "EFKT": {
    "name": "KITTILA",
    "city": "KITTILA",
    "country": "FINLAND",
    "lat": 67.701,
    "lng": 24.847
  },
  "EFKU": {
    "name": "KUOPIO",
    "city": "KUOPIO",
    "country": "FINLAND",
    "lat": 63.007,
    "lng": 27.798
  },
  "EFLA": {
    "name": "LAHTI VESIVEHMAA",
    "city": "VESIVEHMAA",
    "country": "FINLAND",
    "lat": 61.144,
    "lng": 25.693
  },
  "EFLP": {
    "name": "LAPPEENRANTA",
    "city": "LAPPEENRANTA",
    "country": "FINLAND",
    "lat": 61.044,
    "lng": 28.144
  },
  "EFMA": {
    "name": "MARIEHAMN",
    "city": "MARIEHAMN",
    "country": "FINLAND",
    "lat": 60.122,
    "lng": 19.898
  },
  "EFME": {
    "name": "MENKIJARVI",
    "city": "MENKIJARVI",
    "country": "FINLAND",
    "lat": 62.947,
    "lng": 23.519
  },
  "EFMI": {
    "name": "MIKKELI",
    "city": "MIKKELI",
    "country": "FINLAND",
    "lat": 61.686,
    "lng": 27.202
  },
  "EFNU": {
    "name": "NUMMELA",
    "city": "NUMMELA",
    "country": "FINLAND",
    "lat": 60.334,
    "lng": 24.296
  },
  "EFOU": {
    "name": "OULU",
    "city": "OULU",
    "country": "FINLAND",
    "lat": 64.93,
    "lng": 25.354
  },
  "EFPI": {
    "name": "PIIKAJARVI",
    "city": "PIIKAJARVI",
    "country": "FINLAND",
    "lat": 61.246,
    "lng": 22.193
  },
  "EFPO": {
    "name": "PORI",
    "city": "PORI",
    "country": "FINLAND",
    "lat": 61.462,
    "lng": 21.8
  },
  "EFPU": {
    "name": "PUDASJARVI",
    "city": "PUDASJARVI",
    "country": "FINLAND",
    "lat": 65.402,
    "lng": 26.947
  },
  "EFPY": {
    "name": "PYHASALMI",
    "city": "PYHASALMI",
    "country": "FINLAND",
    "lat": 63.732,
    "lng": 25.926
  },
  "EFRH": {
    "name": "RAAHE PATTIJOKI",
    "city": "PATTIJOKI",
    "country": "FINLAND",
    "lat": 64.688,
    "lng": 24.696
  },
  "EFRN": {
    "name": "RANTASALMI",
    "city": "RANTASALMI",
    "country": "FINLAND",
    "lat": 62.065,
    "lng": 28.356
  },
  "EFRO": {
    "name": "ROVANIEMI",
    "city": "ROVANIEMI",
    "country": "FINLAND",
    "lat": 66.565,
    "lng": 25.83
  },
  "EFRY": {
    "name": "RAYSKALA",
    "city": "RAYSKALA",
    "country": "FINLAND",
    "lat": 60.745,
    "lng": 24.108
  },
  "EFSA": {
    "name": "SAVONLINNA",
    "city": "SAVONLINNA",
    "country": "FINLAND",
    "lat": 61.943,
    "lng": 28.945
  },
  "EFSE": {
    "name": "SELANPAA",
    "city": "SELANPAA",
    "country": "FINLAND",
    "lat": 61.062,
    "lng": 26.799
  },
  "EFSO": {
    "name": "SODANKYLA",
    "city": "SODANKYLA",
    "country": "FINLAND",
    "lat": 67.395,
    "lng": 26.619
  },
  "EFTP": {
    "name": "TAMPERE PIRKKALA",
    "city": "TAMPERE",
    "country": "FINLAND",
    "lat": 61.414,
    "lng": 23.604
  },
  "EFTS": {
    "name": "TEISKO",
    "city": "TEISKO",
    "country": "FINLAND",
    "lat": 61.773,
    "lng": 24.027
  },
  "EFTU": {
    "name": "TURKU",
    "city": "TURKU",
    "country": "FINLAND",
    "lat": 60.514,
    "lng": 22.263
  },
  "EFUT": {
    "name": "UTTI",
    "city": "UTTI",
    "country": "FINLAND",
    "lat": 60.896,
    "lng": 26.938
  },
  "EFVA": {
    "name": "VAASA",
    "city": "VAASA",
    "country": "FINLAND",
    "lat": 63.051,
    "lng": 21.761
  },
  "EFVR": {
    "name": "VARKAUS",
    "city": "VARKAUS",
    "country": "FINLAND",
    "lat": 62.171,
    "lng": 27.869
  },
  "EFYL": {
    "name": "YLIVIESKA",
    "city": "YLIVIESKA-RAUDASKYLA",
    "country": "FINLAND",
    "lat": 64.06,
    "lng": 24.716
  },
  "EGAA": {
    "name": "ALDERGROVE",
    "city": "BELFAST",
    "country": "NORTH IRELAND",
    "lat": 54.657,
    "lng": -6.216
  },
  "EGAB": {
    "name": "ST ANGELO",
    "city": "ENNISKILLEN",
    "country": "ENGLAND",
    "lat": 54.399,
    "lng": -7.652
  },
  "EGAC": {
    "name": "CITY",
    "city": "BELFAST",
    "country": "NORTH IRELAND",
    "lat": 54.618,
    "lng": -5.873
  },
  "EGAE": {
    "name": "LONDONDERRY EGLINTON",
    "city": "LONDONDERRY",
    "country": "NORTH IRELAND",
    "lat": 55.043,
    "lng": -7.161
  },
  "EGBB": {
    "name": "BIRMINGHAM",
    "city": "BIRMINGHAM",
    "country": "ENGLAND",
    "lat": 52.454,
    "lng": -1.748
  },
  "EGBE": {
    "name": "COVENTRY",
    "city": "COVENTRY",
    "country": "ENGLAND",
    "lat": 52.37,
    "lng": -1.48
  },
  "EGBG": {
    "name": "LEICESTER",
    "city": "LEICESTER",
    "country": "ENGLAND",
    "lat": 52.608,
    "lng": -1.032
  },
  "EGBJ": {
    "name": "GLOUCESTERSHIRE",
    "city": "GOLOUCHESTERSHIRE",
    "country": "ENGLAND",
    "lat": 51.894,
    "lng": -2.167
  },
  "EGBN": {
    "name": "NOTTINGHAM",
    "city": "NOTTINGHAM",
    "country": "ENGLAND",
    "lat": 52.92,
    "lng": -1.079
  },
  "EGBO": {
    "name": "WOLVERHAMPTON",
    "city": "HALFPENNY GREEN",
    "country": "ENGLAND",
    "lat": 52.517,
    "lng": -2.26
  },
  "EGBP": {
    "name": "KEMBLE",
    "city": "PAILTON",
    "country": "UK",
    "lat": 51.668,
    "lng": -2.057
  },
  "EGBT": {
    "name": "TURWESTON",
    "city": "TURWESTON",
    "country": "UK",
    "lat": 52.041,
    "lng": -1.096
  },
  "EGCC": {
    "name": "MANCHESTER",
    "city": "MANCHESTER",
    "country": "ENGLAND",
    "lat": 53.354,
    "lng": -2.275
  },
  "EGCD": {
    "name": "MANCHESTER WOODFORD",
    "city": "WOODFORT",
    "country": "ENGLAND",
    "lat": 53.338,
    "lng": -2.149
  },
  "EGCF": {
    "name": "SANDTOFT",
    "city": "SANDTOFT",
    "country": "UK",
    "lat": 53.56,
    "lng": -0.858
  },
  "EGDC": {
    "name": "CHIVENOR",
    "city": "CHIVENOR",
    "country": "ENGLAND",
    "lat": 51.087,
    "lng": -4.15
  },
  "EGDG": {
    "name": "ST MAWGAN",
    "city": "NEWQUAI",
    "country": "ENGLAND",
    "lat": 50.441,
    "lng": -4.995
  },
  "EGDL": {
    "name": "LYNEHAM",
    "city": "LYNEHAM",
    "country": "UK",
    "lat": 51.505,
    "lng": -1.993
  },
  "EGDM": {
    "name": "BOSCOMBE DOWN",
    "city": "BOSCOMBE DOWN",
    "country": "ENGLAND",
    "lat": 51.152,
    "lng": -1.747
  },
  "EGDR": {
    "name": "CULDROSE",
    "city": "CULDROSE",
    "country": "ENGLAND",
    "lat": 50.086,
    "lng": -5.256
  },
  "EGDX": {
    "name": "ST ATHAN",
    "city": "ST. ATHAN",
    "country": "UK",
    "lat": 51.405,
    "lng": -3.436
  },
  "EGDY": {
    "name": "YEOVILTON",
    "city": "YEOVILTON",
    "country": "UK",
    "lat": 51.009,
    "lng": -2.639
  },
  "EGFE": {
    "name": "HAVERFORDWEST",
    "city": "HAVERFORDWEST",
    "country": "ENGLAND",
    "lat": 51.833,
    "lng": -4.961
  },
  "EGFF": {
    "name": "CARDIFF",
    "city": "CARDIFF",
    "country": "WALES",
    "lat": 51.397,
    "lng": -3.343
  },
  "EGFH": {
    "name": "SWANSEA",
    "city": "SWANSEA",
    "country": "ENGLAND",
    "lat": 51.605,
    "lng": -4.068
  },
  "EGGD": {
    "name": "BRISTOL",
    "city": "BRISTOL",
    "country": "ENGLAND",
    "lat": 51.383,
    "lng": -2.719
  },
  "EGGP": {
    "name": "LIVERPOOL",
    "city": "LIVERPOOL",
    "country": "ENGLAND",
    "lat": 53.334,
    "lng": -2.85
  },
  "EGGW": {
    "name": "LUTON",
    "city": "LONDON",
    "country": "ENGLAND",
    "lat": 51.874,
    "lng": -0.368
  },
  "EGHD": {
    "name": "PLYMOUTH",
    "city": "PLYMOUTH",
    "country": "ENGLAND",
    "lat": 50.423,
    "lng": -4.106
  },
  "EGHH": {
    "name": "BOURNEMOUTH",
    "city": "BOURNEMOUTH",
    "country": "ENGLAND",
    "lat": 50.78,
    "lng": -1.843
  },
  "EGHI": {
    "name": "SOUTHAMPTON",
    "city": "SOUTHAMPTON",
    "country": "ENGLAND",
    "lat": 50.95,
    "lng": -1.357
  },
  "EGHL": {
    "name": "LASHAM",
    "city": "LASHAM",
    "country": "ENGLAND",
    "lat": 51.185,
    "lng": -1.032
  },
  "EGJB": {
    "name": "GUERNSEY",
    "city": "GUERNSEY",
    "country": "GUERNSEY ISLD.",
    "lat": 49.435,
    "lng": -2.602
  },
  "EGJJ": {
    "name": "JERSEY",
    "city": "JERSEY",
    "country": "ENGLAND",
    "lat": 49.208,
    "lng": -2.195
  },
  "EGKA": {
    "name": "SHOREHAM",
    "city": "SHOREHAM BY SEA",
    "country": "ENGLAND",
    "lat": 50.836,
    "lng": -0.297
  },
  "EGKB": {
    "name": "BIGGIN HILL",
    "city": "BIGGIN HILL",
    "country": "ENGLAND",
    "lat": 51.331,
    "lng": 0.033
  },
  "EGKK": {
    "name": "GATWICK",
    "city": "LONDON",
    "country": "ENGLAND",
    "lat": 51.148,
    "lng": -0.19
  },
  "EGLC": {
    "name": "CITY",
    "city": "LONDON",
    "country": "ENGLAND",
    "lat": 51.505,
    "lng": 0.054
  },
  "EGLF": {
    "name": "FARNBOROUGH",
    "city": "FARNBOROUGH",
    "country": "ENGLAND",
    "lat": 51.276,
    "lng": -0.776
  },
  "EGLJ": {
    "name": "CHALGROVE",
    "city": "CHALSGROVE",
    "country": "ENGLAND",
    "lat": 51.676,
    "lng": -1.081
  },
  "EGLK": {
    "name": "BLACKBUSHE",
    "city": "BLACKBUSHE",
    "country": "ENGLAND",
    "lat": 51.324,
    "lng": -0.848
  },
  "EGLL": {
    "name": "HEATHROW",
    "city": "LONDON",
    "country": "ENGALND",
    "lat": 51.477,
    "lng": -0.461
  },
  "EGMC": {
    "name": "SOUTHEND",
    "city": "SOUTHEND",
    "country": "ENGLAND",
    "lat": 51.571,
    "lng": 0.696
  },
  "EGMD": {
    "name": "LYDD",
    "city": "LYDD",
    "country": "UK",
    "lat": 50.956,
    "lng": 0.939
  },
  "EGMH": {
    "name": "MANSTON",
    "city": "MANSTON",
    "country": "ENGLAND",
    "lat": 51.342,
    "lng": 1.346
  },
  "EGNB": {
    "name": "BROUGH",
    "city": "BROUGH",
    "country": "ENGLAND",
    "lat": 53.719,
    "lng": -0.566
  },
  "EGNC": {
    "name": "CARLISLE",
    "city": "CARLISLE",
    "country": "ENGLAND",
    "lat": 54.938,
    "lng": -2.809
  },
  "EGNH": {
    "name": "BLACKPOOL",
    "city": "BLACKPOOL",
    "country": "ENGLAND",
    "lat": 53.772,
    "lng": -3.029
  },
  "EGNJ": {
    "name": "HUMBERSIDE",
    "city": "HUMBERSIDE",
    "country": "ENGLAND",
    "lat": 53.574,
    "lng": -0.351
  },
  "EGNL": {
    "name": "WALNEY ISLAND",
    "city": "BARROW ISLAND",
    "country": "ENGLAND",
    "lat": 54.13,
    "lng": -3.256
  },
  "EGNM": {
    "name": "LEEDS BRADFORD",
    "city": "LEEDS",
    "country": "ENGLAND",
    "lat": 53.866,
    "lng": -1.661
  },
  "EGNO": {
    "name": "WARTON",
    "city": "WARTON",
    "country": "UK",
    "lat": 53.745,
    "lng": -2.883
  },
  "EGNR": {
    "name": "HAWARDEN",
    "city": "HAWARDEN",
    "country": "ENGLAND",
    "lat": 53.178,
    "lng": -2.978
  },
  "EGNS": {
    "name": "ISLE OF MAN",
    "city": "ISLE OF MAN",
    "country": "ENGLAND",
    "lat": 54.083,
    "lng": -4.624
  },
  "EGNT": {
    "name": "NEWCASTLE",
    "city": "NEWCASTLE",
    "country": "ENGLAND",
    "lat": 55.038,
    "lng": -1.692
  },
  "EGNV": {
    "name": "TEESSIDE",
    "city": "TEESSIDE",
    "country": "ENGLAND",
    "lat": 54.509,
    "lng": -1.429
  },
  "EGNX": {
    "name": "EAST MIDLANDS",
    "city": "EAST MIDLANDS",
    "country": "ENGLAND",
    "lat": 52.831,
    "lng": -1.328
  },
  "EGOD": {
    "name": "LLANBEDR",
    "city": "LLANBEDR",
    "country": "ENGLAND",
    "lat": 52.812,
    "lng": -4.123
  },
  "EGOE": {
    "name": "TERNHILL",
    "city": "TERNHILL",
    "country": "UK",
    "lat": 52.871,
    "lng": -2.533
  },
  "EGOQ": {
    "name": "MONA",
    "city": "MONA",
    "country": "UK",
    "lat": 53.258,
    "lng": -4.373
  },
  "EGOS": {
    "name": "SHAWBURY",
    "city": "SHAWBURY",
    "country": "UK",
    "lat": 52.798,
    "lng": -2.668
  },
  "EGOV": {
    "name": "VALLEY",
    "city": "VALLEY",
    "country": "UK",
    "lat": 53.248,
    "lng": -4.535
  },
  "EGOW": {
    "name": "WOODVALE",
    "city": "WOODVALE",
    "country": "UK",
    "lat": 53.581,
    "lng": -3.055
  },
  "EGOY": {
    "name": "WEST FREUGH",
    "city": "WEST FREUGH",
    "country": "UK",
    "lat": 54.851,
    "lng": -4.948
  },
  "EGPA": {
    "name": "KIRKWALL",
    "city": "KIRKWALL",
    "country": "SCOTLAND",
    "lat": 58.958,
    "lng": -2.905
  },
  "EGPB": {
    "name": "SUMBURGH",
    "city": "SUMBURGH",
    "country": "UK",
    "lat": 59.879,
    "lng": -1.296
  },
  "EGPC": {
    "name": "WICK",
    "city": "WICK",
    "country": "UK",
    "lat": 58.459,
    "lng": -3.093
  },
  "EGPD": {
    "name": "DYCE",
    "city": "ABERDEEN",
    "country": "UK",
    "lat": 57.204,
    "lng": -2.2
  },
  "EGPE": {
    "name": "INVERNESS",
    "city": "INVERNESS",
    "country": "UK",
    "lat": 57.54,
    "lng": -4.05
  },
  "EGPF": {
    "name": "GLASGOW",
    "city": "GLASGOW",
    "country": "UK",
    "lat": 55.872,
    "lng": -4.433
  },
  "EGPH": {
    "name": "EDINBURGH",
    "city": "EDINBURGH",
    "country": "UK",
    "lat": 55.95,
    "lng": -3.373
  },
  "EGPI": {
    "name": "ISLAY",
    "city": "ISLAY",
    "country": "UK",
    "lat": 55.682,
    "lng": -6.257
  },
  "EGPK": {
    "name": "PRESTWICK",
    "city": "PRESTWICK",
    "country": "UK",
    "lat": 55.508,
    "lng": -4.587
  },
  "EGPL": {
    "name": "BENBECULA",
    "city": "BENBECULA",
    "country": "UK",
    "lat": 57.481,
    "lng": -7.363
  },
  "EGPM": {
    "name": "SCATSTA",
    "city": "SCATSTA",
    "country": "UK",
    "lat": 60.432,
    "lng": -1.298
  },
  "EGPN": {
    "name": "DUNDEE",
    "city": "DUNDEE",
    "country": "UK",
    "lat": 56.453,
    "lng": -3.026
  },
  "EGPO": {
    "name": "STORNOWAY",
    "city": "STORNOWAY",
    "country": "UK",
    "lat": 58.214,
    "lng": -6.329
  },
  "EGPU": {
    "name": "TIREE",
    "city": "TIREE",
    "country": "UK",
    "lat": 56.499,
    "lng": -6.869
  },
  "EGQL": {
    "name": "LEUCHARS",
    "city": "LEUCHARS",
    "country": "UK",
    "lat": 56.373,
    "lng": -2.868
  },
  "EGQS": {
    "name": "LOSSIEMOUTH",
    "city": "LOSSIEMOUTH",
    "country": "UK",
    "lat": 57.705,
    "lng": -3.339
  },
  "EGRR": {
    "name": "BRACKNELL MET CENTER",
    "city": "BRACKNELL",
    "country": "ENGLAND",
    "lat": 51.383,
    "lng": -0.783
  },
  "EGSC": {
    "name": "CAMBRIDGE",
    "city": "CAMBRIDGE",
    "country": "ENGLAND",
    "lat": 52.205,
    "lng": 0.175
  },
  "EGSF": {
    "name": "CONINGTON",
    "city": "PETERBOROUGH",
    "country": "ENGLAND",
    "lat": 52.468,
    "lng": -0.251
  },
  "EGSH": {
    "name": "NORWICH",
    "city": "NORWICH",
    "country": "ENGLAND",
    "lat": 52.676,
    "lng": 1.283
  },
  "EGSS": {
    "name": "STANSTED",
    "city": "LONDON",
    "country": "ENGLAND",
    "lat": 51.885,
    "lng": 0.235
  },
  "EGSX": {
    "name": "NORTH WEALD",
    "city": "NORTH WEALD",
    "country": "UK",
    "lat": 51.722,
    "lng": 0.154
  },
  "EGSY": {
    "name": "SHEFFIELD CITY",
    "city": "FOWLMERE",
    "country": "ENGLAND",
    "lat": 53.394,
    "lng": -1.388
  },
  "EGTC": {
    "name": "CRANFIELD",
    "city": "CRANFIELD",
    "country": "ENGLAND",
    "lat": 52.072,
    "lng": -0.617
  },
  "EGTD": {
    "name": "DUNSFOLD",
    "city": "DUNSFOLD",
    "country": "ENGLAND",
    "lat": 51.117,
    "lng": -0.534
  },
  "EGTE": {
    "name": "EXETER",
    "city": "EXETER",
    "country": "ENGLAND",
    "lat": 50.734,
    "lng": -3.414
  },
  "EGTG": {
    "name": "BRISTOL FILTON",
    "city": "BRISTOL",
    "country": "ENGLAND",
    "lat": 51.519,
    "lng": -2.591
  },
  "EGTH": {
    "name": "HATFIELD",
    "city": "HATFIELD",
    "country": "ENGLAND",
    "lat": 51.767,
    "lng": 0.25
  },
  "EGTK": {
    "name": "KIDLINGTON",
    "city": "OXFORD",
    "country": "ENGLAND",
    "lat": 51.837,
    "lng": -1.32
  },
  "EGUB": {
    "name": "BENSON",
    "city": "BENSON",
    "country": "ENGLAND",
    "lat": 51.616,
    "lng": -1.096
  },
  "EGUL": {
    "name": "LAKENHEATH",
    "city": "LAKENHEATH",
    "country": "ENGLAND",
    "lat": 52.409,
    "lng": 0.561
  },
  "EGUN": {
    "name": "MILDENHALL",
    "city": "MILDENHALL",
    "country": "ENGLAND",
    "lat": 52.361,
    "lng": 0.488
  },
  "EGUW": {
    "name": "WATTISHAM",
    "city": "WATTISHAM",
    "country": "UK",
    "lat": 52.127,
    "lng": 0.956
  },
  "EGUY": {
    "name": "WYTON",
    "city": "WYTON",
    "country": "UK",
    "lat": 52.357,
    "lng": -0.108
  },
  "EGVA": {
    "name": "FAIRFORD",
    "city": "FAIRFORD",
    "country": "ENGLAND",
    "lat": 51.682,
    "lng": -1.79
  },
  "EGVN": {
    "name": "BRIZE NORTON",
    "city": "BRIZE NORTON",
    "country": "ENGLAND",
    "lat": 51.75,
    "lng": -1.584
  },
  "EGVO": {
    "name": "ODIHAM",
    "city": "ODIHAM",
    "country": "UK",
    "lat": 51.234,
    "lng": -0.943
  },
  "EGWC": {
    "name": "COSFORD",
    "city": "COSFORD",
    "country": "ENGLAND",
    "lat": 52.64,
    "lng": -2.306
  },
  "EGWU": {
    "name": "NORTHOLT RAF",
    "city": "NORTHOLT",
    "country": "UK",
    "lat": 51.553,
    "lng": -0.418
  },
  "EGXC": {
    "name": "CONINGSBY",
    "city": "CONINGSBY",
    "country": "ENGLAND",
    "lat": 53.093,
    "lng": -0.166
  },
  "EGXD": {
    "name": "DISHFORTH",
    "city": "DISHFORTH",
    "country": "ENGLAND",
    "lat": 54.137,
    "lng": -1.42
  },
  "EGXE": {
    "name": "LEEMING",
    "city": "LEEMING",
    "country": "ENGLAND",
    "lat": 54.292,
    "lng": -1.535
  },
  "EGXG": {
    "name": "CHURCH FENTON",
    "city": "CHURCH FENTON",
    "country": "ENGLAND",
    "lat": 53.834,
    "lng": -1.195
  },
  "EGXH": {
    "name": "HONINGTON",
    "city": "HONINGTON",
    "country": "ENGLAND",
    "lat": 52.343,
    "lng": 0.773
  },
  "EGXJ": {
    "name": "COTTESMORE",
    "city": "COTTESMORE",
    "country": "ENGLAND",
    "lat": 52.736,
    "lng": -0.649
  },
  "EGXP": {
    "name": "SCAMPTON",
    "city": "SCAMPTON",
    "country": "UK",
    "lat": 53.307,
    "lng": -0.551
  },
  "EGXT": {
    "name": "WITTERING",
    "city": "WITTERING",
    "country": "UK",
    "lat": 52.613,
    "lng": -0.476
  },
  "EGXU": {
    "name": "LINTON ON OUSE",
    "city": "LINTON-ON-OUSE",
    "country": "ENGLAND",
    "lat": 54.049,
    "lng": -1.252
  },
  "EGXW": {
    "name": "WADDINGTON",
    "city": "WADDINGTON",
    "country": "UK",
    "lat": 53.166,
    "lng": -0.524
  },
  "EGXZ": {
    "name": "TOPCLIFFE",
    "city": "TOPCLIFFE",
    "country": "UK",
    "lat": 54.206,
    "lng": -1.382
  },
  "EGYC": {
    "name": "COLTISHALL",
    "city": "COLTISHALL",
    "country": "ENGLAND",
    "lat": 52.755,
    "lng": 1.357
  },
  "EGYD": {
    "name": "CRANWELL",
    "city": "CRANWELL",
    "country": "ENGLAND",
    "lat": 53.031,
    "lng": -0.481
  },
  "EGYE": {
    "name": "BARKSTON HEATH",
    "city": "BARKSTON HEATH",
    "country": "ENGLAND",
    "lat": 52.962,
    "lng": -0.561
  },
  "EGYM": {
    "name": "MARHAM",
    "city": "MARHAM",
    "country": "UK",
    "lat": 52.648,
    "lng": 0.55
  },
  "EGYP": {
    "name": "MOUNT PLEASANT",
    "city": "MOUNT PLEASANT",
    "country": "FALKLAND ISLANDS",
    "lat": -51.823,
    "lng": -58.447
  },
  "EHAM": {
    "name": "SCHIPHOL",
    "city": "AMSTERDAM",
    "country": "NETHERLANDS",
    "lat": 52.309,
    "lng": 4.764
  },
  "EHBD": {
    "name": "BUDEL",
    "city": "WEERT",
    "country": "NETHERLANDS",
    "lat": 51.255,
    "lng": 5.601
  },
  "EHBK": {
    "name": "MAASTRICHT",
    "city": "MAASTRICHT",
    "country": "NETHERLANDS",
    "lat": 50.911,
    "lng": 5.77
  },
  "EHDL": {
    "name": "DEELEN",
    "city": "DEELEN",
    "country": "NETHERLANDS",
    "lat": 52.061,
    "lng": 5.873
  },
  "EHDR": {
    "name": "DRACHTEN",
    "city": "DRACHTEN",
    "country": "NETHERLANDS",
    "lat": 53.119,
    "lng": 6.13
  },
  "EHEH": {
    "name": "EINDHOVEN",
    "city": "EINDHOVEN",
    "country": "NETHERLANDS",
    "lat": 51.45,
    "lng": 5.374
  },
  "EHGG": {
    "name": "EELDE",
    "city": "GRONINGEN",
    "country": "NETHERLANDS",
    "lat": 53.119,
    "lng": 6.579
  },
  "EHGR": {
    "name": "GILZE RIJEN",
    "city": "GILZE-RIJEN",
    "country": "NETHERLANDS",
    "lat": 51.568,
    "lng": 4.933
  },
  "EHKD": {
    "name": "DE KOOY",
    "city": "DE KOOY",
    "country": "NETHERLANDS",
    "lat": 52.923,
    "lng": 4.781
  },
  "EHLE": {
    "name": "LELYSTAD",
    "city": "LELYSTAD",
    "country": "NETHERLANDS",
    "lat": 52.46,
    "lng": 5.527
  },
  "EHLW": {
    "name": "LEEUWARDEN",
    "city": "LEEUWARDEN",
    "country": "NETHERLANDS",
    "lat": 53.229,
    "lng": 5.761
  },
  "EHRD": {
    "name": "ROTTERDAM",
    "city": "ROTTERDAM",
    "country": "NETHERLANDS",
    "lat": 51.957,
    "lng": 4.442
  },
  "EHSB": {
    "name": "SOESTERBERG",
    "city": "SOESTERBERG",
    "country": "NETHERLANDS",
    "lat": 52.127,
    "lng": 5.276
  },
  "EHTW": {
    "name": "TWENTHE",
    "city": "ENSCHEDE",
    "country": "NETHERLANDS",
    "lat": 52.27,
    "lng": 6.874
  },
  "EHVB": {
    "name": "VALKENBURG",
    "city": "VALKENBURG",
    "country": "NETHERLANDS",
    "lat": 52.17,
    "lng": 4.426
  },
  "EHWO": {
    "name": "WOENSDRECHT",
    "city": "WOENSDRECHT",
    "country": "NETHERLANDS",
    "lat": 51.449,
    "lng": 4.342
  },
  "EICK": {
    "name": "CORK",
    "city": "CORK",
    "country": "IRELAND",
    "lat": 51.843,
    "lng": -8.492
  },
  "EICM": {
    "name": "GALWAY",
    "city": "GALWAY",
    "country": "IRELAND",
    "lat": 53.301,
    "lng": -8.939
  },
  "EIDL": {
    "name": "DONEGAL",
    "city": "DONEGAL",
    "country": "IRELAND",
    "lat": 55.044,
    "lng": -8.341
  },
  "EIDW": {
    "name": "DUBLIN",
    "city": "DUBLIN",
    "country": "IRELAND",
    "lat": 53.421,
    "lng": -6.27
  },
  "EIKN": {
    "name": "CONNAUGHT",
    "city": "CONNAUGHT",
    "country": "IRELAND",
    "lat": 53.91,
    "lng": -8.818
  },
  "EIKY": {
    "name": "KERRY",
    "city": "KERRY",
    "country": "IRELAND",
    "lat": 52.181,
    "lng": -9.524
  },
  "EIME": {
    "name": "CASEMENT",
    "city": "CASEMENT",
    "country": "IRELAND",
    "lat": 53.303,
    "lng": -6.443
  },
  "EINN": {
    "name": "SHANNON",
    "city": "SHANNON",
    "country": "IRELAND",
    "lat": 52.702,
    "lng": -8.925
  },
  "EISG": {
    "name": "SLIGO",
    "city": "SLIGO",
    "country": "IRELAND",
    "lat": 54.28,
    "lng": -8.599
  },
  "EIWF": {
    "name": "WATERFORD",
    "city": "WATERFORD",
    "country": "IRELAND",
    "lat": 52.187,
    "lng": -7.087
  },
  "EKAH": {
    "name": "AARHUS",
    "city": "AARHUS",
    "country": "DENMARK",
    "lat": 56.304,
    "lng": 10.619
  },
  "EKBI": {
    "name": "BILLUND",
    "city": "BILLUND",
    "country": "DENMARK",
    "lat": 55.74,
    "lng": 9.152
  },
  "EKCH": {
    "name": "KASTRUP",
    "city": "COPENHAGEN",
    "country": "DENMARK",
    "lat": 55.618,
    "lng": 12.656
  },
  "EKEB": {
    "name": "ESBJERG",
    "city": "ESBJERG",
    "country": "DENMARK",
    "lat": 55.526,
    "lng": 8.553
  },
  "EKGH": {
    "name": "GRONHOLT HILLEROD",
    "city": "GRONHOLT",
    "country": "DENMARK",
    "lat": 55.941,
    "lng": 12.382
  },
  "EKHO": {
    "name": "LINDTORP",
    "city": "LINDTORP",
    "country": "DENMARK",
    "lat": 56.397,
    "lng": 8.443
  },
  "EKKA": {
    "name": "KARUP",
    "city": "KARUP",
    "country": "DENMARK",
    "lat": 56.297,
    "lng": 9.124
  },
  "EKLS": {
    "name": "LAESO",
    "city": "LAESO",
    "country": "DENMARK",
    "lat": 57.278,
    "lng": 11.001
  },
  "EKMB": {
    "name": "LOLLAND FALSTER MARIBO",
    "city": "MARIBO",
    "country": "DENMARK",
    "lat": 54.699,
    "lng": 11.44
  },
  "EKOD": {
    "name": "ODENSE",
    "city": "ODENSE",
    "country": "DENMARK",
    "lat": 55.476,
    "lng": 10.329
  },
  "EKPB": {
    "name": "KRUSA PADBORG",
    "city": "KRUSA-PADBORG",
    "country": "DENMARK",
    "lat": 54.87,
    "lng": 9.279
  },
  "EKRK": {
    "name": "ROSKILDE",
    "city": "COPENHAGEN",
    "country": "DENMARK",
    "lat": 55.586,
    "lng": 12.131
  },
  "EKRN": {
    "name": "BORNHOLM RONNE",
    "city": "RONNE",
    "country": "DENMARK",
    "lat": 55.063,
    "lng": 14.759
  },
  "EKSB": {
    "name": "SONDERBORG",
    "city": "SOENDERBORG",
    "country": "DENMARK",
    "lat": 54.964,
    "lng": 9.792
  },
  "EKSN": {
    "name": "SINDAL",
    "city": "SINDAL",
    "country": "DENMARK",
    "lat": 57.503,
    "lng": 10.229
  },
  "EKSP": {
    "name": "SKRYDSTRUP",
    "city": "SKRYDSTRUP",
    "country": "DENMARK",
    "lat": 55.225,
    "lng": 9.264
  },
  "EKSV": {
    "name": "SKIVE",
    "city": "SKIVE",
    "country": "DENMARK",
    "lat": 56.55,
    "lng": 9.173
  },
  "EKTS": {
    "name": "THISTED",
    "city": "THISTED",
    "country": "DENMARK",
    "lat": 57.069,
    "lng": 8.705
  },
  "EKVA": {
    "name": "VANDEL",
    "city": "VANDEL",
    "country": "DENMARK",
    "lat": 55.697,
    "lng": 9.193
  },
  "EKVD": {
    "name": "KOLDING VAMDRUP",
    "city": "KOLDING",
    "country": "DENMARK",
    "lat": 55.436,
    "lng": 9.331
  },
  "EKVG": {
    "name": "VAGAR",
    "city": "VAGAR",
    "country": "FAROE ISL.",
    "lat": 62.064,
    "lng": -7.277
  },
  "EKVH": {
    "name": "AARS",
    "city": "VESTHIMMERLAND",
    "country": "DENMARK",
    "lat": 56.847,
    "lng": 9.459
  },
  "EKVJ": {
    "name": "STAUNING",
    "city": "STAUNING",
    "country": "DENMARK",
    "lat": 55.99,
    "lng": 8.354
  },
  "EKVL": {
    "name": "VAERLOSE",
    "city": "VAERLOSE",
    "country": "DENMARK",
    "lat": 55.767,
    "lng": 12.343
  },
  "EKYT": {
    "name": "AALBORG",
    "city": "AALBORG",
    "country": "DENMARK",
    "lat": 57.093,
    "lng": 9.849
  },
  "ELLX": {
    "name": "FINDEL INTERNATIONAL AIRPORT",
    "city": "LUXEMBURG",
    "country": "LUXEMBURG",
    "lat": 49.626,
    "lng": 6.211
  },
  "ENAL": {
    "name": "VIGRA",
    "city": "ALESUND",
    "country": "NORWAY",
    "lat": 62.56,
    "lng": 6.11
  },
  "ENAN": {
    "name": "ANDOYA",
    "city": "ANDOYA",
    "country": "NORWAY",
    "lat": 69.293,
    "lng": 16.144
  },
  "ENAT": {
    "name": "ALTA",
    "city": "ALTA",
    "country": "NORWAY",
    "lat": 69.977,
    "lng": 23.366
  },
  "ENBL": {
    "name": "BRINGELAND",
    "city": "FORDE",
    "country": "NORWAY",
    "lat": 61.392,
    "lng": 5.764
  },
  "ENBM": {
    "name": "BOEMOEN",
    "city": "BOMOEN",
    "country": "NORWAY",
    "lat": 60.639,
    "lng": 6.501
  },
  "ENBN": {
    "name": "BRONNOY",
    "city": "BRONNOYSUND",
    "country": "NORWAY",
    "lat": 65.459,
    "lng": 12.214
  },
  "ENBO": {
    "name": "BODO",
    "city": "BODOE",
    "country": "NORWAY",
    "lat": 67.269,
    "lng": 14.363
  },
  "ENBR": {
    "name": "BERGEN FLESLAND",
    "city": "BERGEN",
    "country": "NORWAY",
    "lat": 60.293,
    "lng": 5.218
  },
  "ENBS": {
    "name": "BATSFJORD",
    "city": "BATSFJORD",
    "country": "NORWAY",
    "lat": 70.6,
    "lng": 29.692
  },
  "ENCN": {
    "name": "KRISTIANSAND KJEVIK",
    "city": "KRISTIANSAND",
    "country": "NORWAY",
    "lat": 58.204,
    "lng": 8.085
  },
  "ENDI": {
    "name": "DAGALI",
    "city": "DAGLI",
    "country": "NORWAY",
    "lat": 60.417,
    "lng": 8.514
  },
  "ENDU": {
    "name": "BARDUFOSS",
    "city": "BARDUFOSS",
    "country": "NORWAY",
    "lat": 69.056,
    "lng": 18.54
  },
  "ENEV": {
    "name": "EVENES",
    "city": "EVENES",
    "country": "NORWAY",
    "lat": 68.491,
    "lng": 16.678
  },
  "ENFB": {
    "name": "OSLO FORNEBU",
    "city": "OSLO",
    "country": "NORWAY",
    "lat": 59.896,
    "lng": 10.617
  },
  "ENFG": {
    "name": "FAGERNES LEIRIN",
    "city": "FAGERNES",
    "country": "NORWAY",
    "lat": 61.011,
    "lng": 9.293
  },
  "ENFL": {
    "name": "FLORO",
    "city": "FLORO",
    "country": "NORWAY",
    "lat": 61.584,
    "lng": 5.025
  },
  "ENGM": {
    "name": "OSLO GARDERMOEN",
    "city": "OSLO",
    "country": "NORWAY",
    "lat": 60.194,
    "lng": 11.1
  },
  "ENHA": {
    "name": "STAFSBERG",
    "city": "HAMAR",
    "country": "NORWAY",
    "lat": 60.818,
    "lng": 11.067
  },
  "ENHD": {
    "name": "HAUGESUND KARMOY",
    "city": "HAUGESUND",
    "country": "NORWAY",
    "lat": 59.345,
    "lng": 5.208
  },
  "ENHK": {
    "name": "HASVIK",
    "city": "HASVIK",
    "country": "NORWAY",
    "lat": 70.487,
    "lng": 22.14
  },
  "ENKB": {
    "name": "KRISTIANSUND KVERNBERGET",
    "city": "KRISTIANSUND",
    "country": "NORWAY",
    "lat": 63.112,
    "lng": 7.824
  },
  "ENKJ": {
    "name": "KJELLER",
    "city": "KJELLER",
    "country": "NORWAY",
    "lat": 59.969,
    "lng": 11.036
  },
  "ENKR": {
    "name": "KIRKENES HOYBUKTMOEN",
    "city": "KIRKENES",
    "country": "NORWAY",
    "lat": 69.725,
    "lng": 29.887
  },
  "ENLI": {
    "name": "LISTA",
    "city": "LISTA",
    "country": "NORWAY",
    "lat": 58.1,
    "lng": 6.625
  },
  "ENML": {
    "name": "ARO",
    "city": "MOLDE",
    "country": "NORWAY",
    "lat": 62.746,
    "lng": 7.272
  },
  "ENMS": {
    "name": "KJAERSTAD",
    "city": "MOSJOEN",
    "country": "NORWAY",
    "lat": 65.784,
    "lng": 13.215
  },
  "ENNA": {
    "name": "BANAK",
    "city": "BANAK",
    "country": "NORWAY",
    "lat": 70.069,
    "lng": 24.973
  },
  "ENNO": {
    "name": "NOTODDEN",
    "city": "NOTODDEN",
    "country": "NORWAY",
    "lat": 59.566,
    "lng": 9.212
  },
  "ENOL": {
    "name": "ORLAND",
    "city": "ORLAND",
    "country": "NORWAY",
    "lat": 63.699,
    "lng": 9.604
  },
  "ENRO": {
    "name": "ROEROS",
    "city": "ROROS",
    "country": "NORWAY",
    "lat": 62.578,
    "lng": 11.342
  },
  "ENRY": {
    "name": "RYGGE",
    "city": "RYGGE",
    "country": "NORWAY",
    "lat": 59.379,
    "lng": 10.786
  },
  "ENSB": {
    "name": "SVALBARD LONGYEAR",
    "city": "SVALBARD",
    "country": "NORWAY",
    "lat": 78.246,
    "lng": 15.466
  },
  "ENSG": {
    "name": "SOGNDAL HAUKASEN",
    "city": "SOGNDAL",
    "country": "NORWAY",
    "lat": 61.156,
    "lng": 7.136
  },
  "ENSN": {
    "name": "SKIEN GEITERYGGEN",
    "city": "SKIEN",
    "country": "NORWAY",
    "lat": 59.185,
    "lng": 9.567
  },
  "ENSO": {
    "name": "SOERSTOKKEN",
    "city": "STORD",
    "country": "NORWAY",
    "lat": 59.792,
    "lng": 5.341
  },
  "ENSR": {
    "name": "SORKJOSEN",
    "city": "SORKJOSEN",
    "country": "NORWAY",
    "lat": 69.787,
    "lng": 20.959
  },
  "ENSS": {
    "name": "SVARTNES",
    "city": "SVARTNES",
    "country": "NORWAY",
    "lat": 70.355,
    "lng": 31.045
  },
  "ENST": {
    "name": "STOKKA",
    "city": "SANDNESSJOEN",
    "country": "NORWAY",
    "lat": 65.957,
    "lng": 12.469
  },
  "ENTC": {
    "name": "TROMSO",
    "city": "TROMSO",
    "country": "NORWAY",
    "lat": 69.683,
    "lng": 18.919
  },
  "ENTO": {
    "name": "TORP",
    "city": "TORP",
    "country": "NORWAY",
    "lat": 59.187,
    "lng": 10.259
  },
  "ENVA": {
    "name": "TRONDHEIM VAERNES",
    "city": "TRONDHEIM",
    "country": "NORWAY",
    "lat": 63.458,
    "lng": 10.94
  },
  "ENZV": {
    "name": "STAVANGER SOLA",
    "city": "STAVANGER",
    "country": "NORWAY",
    "lat": 58.877,
    "lng": 5.638
  },
  "EPGD": {
    "name": "REBIECHOWO",
    "city": "GDANSK",
    "country": "POLAND",
    "lat": 54.377,
    "lng": 18.466
  },
  "EPKK": {
    "name": "BALICE JP II INTERNATIONAL AIRPORT",
    "city": "KRAKOW",
    "country": "POLAND",
    "lat": 50.078,
    "lng": 19.785
  },
  "EPKM": {
    "name": "MUCHOWIEC",
    "city": "KATOWICE",
    "country": "POLAND",
    "lat": 50.238,
    "lng": 19.035
  },
  "EPKO": {
    "name": "ZEGRZE POMORSKIE",
    "city": "KOSZALIN",
    "country": "POLAND",
    "lat": 54.042,
    "lng": 16.264
  },
  "EPKT": {
    "name": "PYRZOWICE",
    "city": "KATOWICE",
    "country": "POLAND",
    "lat": 50.474,
    "lng": 19.08
  },
  "EPLL": {
    "name": "LUBLINEK",
    "city": "LODZ",
    "country": "POLAND",
    "lat": 51.722,
    "lng": 19.398
  },
  "EPML": {
    "name": "MIELEC",
    "city": "MIELEC",
    "country": "POLAND",
    "lat": 50.322,
    "lng": 21.462
  },
  "EPPO": {
    "name": "LAWICA",
    "city": "POZNAN",
    "country": "POLAND",
    "lat": 52.421,
    "lng": 16.826
  },
  "EPRZ": {
    "name": "JASIONKA",
    "city": "RZESZOW",
    "country": "POLAND",
    "lat": 50.11,
    "lng": 22.019
  },
  "EPSC": {
    "name": "GOLENIOW",
    "city": "SZCZECHIN",
    "country": "POLAND",
    "lat": 53.585,
    "lng": 14.902
  },
  "EPSD": {
    "name": "DABIE",
    "city": "SZCZECHIN",
    "country": "POLAND",
    "lat": 53.392,
    "lng": 14.634
  },
  "EPSK": {
    "name": "REDZIKOWO",
    "city": "SLUPSK",
    "country": "POLAND",
    "lat": 54.479,
    "lng": 17.108
  },
  "EPSN": {
    "name": "SWIDWIN",
    "city": "SHAPAJA",
    "country": "PERU",
    "lat": 53.791,
    "lng": 15.828
  },
  "EPWA": {
    "name": "OKECIE",
    "city": "WARSAW",
    "country": "POLAND",
    "lat": 52.166,
    "lng": 20.967
  },
  "EPWR": {
    "name": "STRACHOWICE",
    "city": "WROCLAW",
    "country": "POLAND",
    "lat": 51.102,
    "lng": 16.886
  },
  "EPZG": {
    "name": "BABIMOST",
    "city": "ZIELONA GORA",
    "country": "POLAND",
    "lat": 52.139,
    "lng": 15.799
  },
  "ESCF": {
    "name": "MALMEN",
    "city": "LINKOEPING",
    "country": "SWEDEN",
    "lat": 58.402,
    "lng": 15.526
  },
  "ESCK": {
    "name": "BRAVALLA",
    "city": "NORRKOEPING",
    "country": "SWEDEN",
    "lat": 58.611,
    "lng": 16.103
  },
  "ESCM": {
    "name": "UPPSALA",
    "city": "UPPSALA",
    "country": "SWEDEN",
    "lat": 59.897,
    "lng": 17.588
  },
  "ESCN": {
    "name": "TULLINGE",
    "city": "STOCKHOLM",
    "country": "SWEDEN",
    "lat": 59.181,
    "lng": 17.912
  },
  "ESDB": {
    "name": "ANGELHOLM",
    "city": "ANGELHOLM",
    "country": "SWEDEN",
    "lat": 56.296,
    "lng": 12.847
  },
  "ESDF": {
    "name": "RONNEBY",
    "city": "RONNEBY",
    "country": "SWEDEN",
    "lat": 56.267,
    "lng": 15.265
  },
  "ESFH": {
    "name": "HASSLOSA",
    "city": "HASSLOSA",
    "country": "SWEDEN",
    "lat": 58.409,
    "lng": 13.262
  },
  "ESFI": {
    "name": "KNISLINGE",
    "city": "KNISLINGE",
    "country": "SWEDEN",
    "lat": 56.184,
    "lng": 14.132
  },
  "ESFM": {
    "name": "MOHOLM",
    "city": "MOHOLM",
    "country": "SWEDEN",
    "lat": 58.598,
    "lng": 14.114
  },
  "ESFQ": {
    "name": "KOSTA",
    "city": "KOSTA",
    "country": "SWEDEN",
    "lat": 56.844,
    "lng": 15.452
  },
  "ESFR": {
    "name": "RADA",
    "city": "RADA",
    "country": "SWEDEN",
    "lat": 58.498,
    "lng": 13.053
  },
  "ESFY": {
    "name": "BYHOLMA",
    "city": "BYHOLMA",
    "country": "SWEDEN",
    "lat": 56.785,
    "lng": 13.602
  },
  "ESGG": {
    "name": "LANDVETTER",
    "city": "GOTHENBORG",
    "country": "SWEDEN",
    "lat": 57.663,
    "lng": 12.28
  },
  "ESGJ": {
    "name": "JONKOPING",
    "city": "JOENKOEPING",
    "country": "SWEDEN",
    "lat": 57.758,
    "lng": 14.069
  },
  "ESGK": {
    "name": "FALKOPING",
    "city": "FALKOPING",
    "country": "SWEDEN",
    "lat": 58.17,
    "lng": 13.588
  },
  "ESGL": {
    "name": "LIDKOPING",
    "city": "LIDKOPING",
    "country": "SWEDEN",
    "lat": 58.465,
    "lng": 13.174
  },
  "ESGP": {
    "name": "SAVE",
    "city": "GOTHENBORG",
    "country": "SWEDEN",
    "lat": 57.775,
    "lng": 11.87
  },
  "ESGR": {
    "name": "SKOVDE",
    "city": "SKOVDE",
    "country": "SWEDEN",
    "lat": 58.456,
    "lng": 13.973
  },
  "ESGT": {
    "name": "TROLLHATTAN VANERSBORG",
    "city": "TROLLHATTAN",
    "country": "SWEDEN",
    "lat": 58.318,
    "lng": 12.345
  },
  "ESIA": {
    "name": "KARLSBORG",
    "city": "KARLSBORG",
    "country": "SWEDEN",
    "lat": 58.514,
    "lng": 14.507
  },
  "ESIB": {
    "name": "SATENAS",
    "city": "SATENAS",
    "country": "SWEDEN",
    "lat": 58.426,
    "lng": 12.714
  },
  "ESKA": {
    "name": "GIMO",
    "city": "GIMO",
    "country": "SWEDEN",
    "lat": 60.133,
    "lng": 18.105
  },
  "ESKB": {
    "name": "BARKARBY",
    "city": "STOCKHOLM",
    "country": "SWEDEN",
    "lat": 59.419,
    "lng": 17.891
  },
  "ESKK": {
    "name": "KARLSKOGA",
    "city": "KARLSKOGA",
    "country": "SWEDEN",
    "lat": 59.346,
    "lng": 14.496
  },
  "ESKM": {
    "name": "MORA",
    "city": "MORA",
    "country": "SWEDEN",
    "lat": 60.958,
    "lng": 14.511
  },
  "ESKN": {
    "name": "SKAVSTA",
    "city": "STOCKHOLM",
    "country": "SWEDEN",
    "lat": 58.789,
    "lng": 16.912
  },
  "ESKS": {
    "name": "STRANGNAS",
    "city": "STRANGNAS",
    "country": "SWEDEN",
    "lat": 59.314,
    "lng": 17.109
  },
  "ESKV": {
    "name": "ARVIKA",
    "city": "ARVIKA",
    "country": "SWEDEN",
    "lat": 59.676,
    "lng": 12.639
  },
  "ESKX": {
    "name": "BJORKVIK",
    "city": "BJORKVIK",
    "country": "SWEDEN",
    "lat": 58.791,
    "lng": 16.571
  },
  "ESMA": {
    "name": "EMMABODA",
    "city": "EMMABODA",
    "country": "SWEDEN",
    "lat": 56.611,
    "lng": 15.605
  },
  "ESMG": {
    "name": "FERINGE",
    "city": "LJUNGBY",
    "country": "SWEDEN",
    "lat": 56.95,
    "lng": 13.922
  },
  "ESMK": {
    "name": "KRISTIANSTAD",
    "city": "KRISTIANSTAD",
    "country": "SWEDEN",
    "lat": 55.922,
    "lng": 14.085
  },
  "ESML": {
    "name": "LANDSKRONA",
    "city": "LANDSKRONA",
    "country": "SWEDEN",
    "lat": 55.945,
    "lng": 12.861
  },
  "ESMO": {
    "name": "OSKARSHAMN",
    "city": "OSKARSHAMN",
    "country": "SWEDEN",
    "lat": 57.35,
    "lng": 16.498
  },
  "ESMP": {
    "name": "ANDERSTORP",
    "city": "ANDERSTORP",
    "country": "SWEDEN",
    "lat": 57.264,
    "lng": 13.599
  },
  "ESMQ": {
    "name": "KALMAR",
    "city": "KALKMAR",
    "country": "SWEDEN",
    "lat": 56.685,
    "lng": 16.288
  },
  "ESMS": {
    "name": "STURUP",
    "city": "MALMOE",
    "country": "SWEDEN",
    "lat": 55.53,
    "lng": 13.371
  },
  "ESMT": {
    "name": "HALMSTAD",
    "city": "HALMSTAD",
    "country": "SWEDEN",
    "lat": 56.691,
    "lng": 12.82
  },
  "ESMV": {
    "name": "HAGSHULT",
    "city": "HAGSHULT",
    "country": "SWEDEN",
    "lat": 57.292,
    "lng": 14.137
  },
  "ESMX": {
    "name": "KRONOBERG",
    "city": "VAXJO",
    "country": "SWEDEN",
    "lat": 56.929,
    "lng": 14.728
  },
  "ESNA": {
    "name": "HALLVIKEN",
    "city": "HALLVIKEN",
    "country": "SWEDEN",
    "lat": 63.738,
    "lng": 15.458
  },
  "ESNC": {
    "name": "HEDLANDA",
    "city": "HEDE",
    "country": "SWEDEN",
    "lat": 62.409,
    "lng": 13.747
  },
  "ESND": {
    "name": "SVEG",
    "city": "SVEG",
    "country": "SWEDEN",
    "lat": 62.048,
    "lng": 14.423
  },
  "ESNF": {
    "name": "FARILA",
    "city": "FARILA",
    "country": "SWEDEN",
    "lat": 61.898,
    "lng": 15.705
  },
  "ESNG": {
    "name": "GALLIVARE",
    "city": "GALLIVARE",
    "country": "SWEDEN",
    "lat": 67.132,
    "lng": 20.814
  },
  "ESNH": {
    "name": "HUDIKSVALL",
    "city": "HUDIKSVALL",
    "country": "SWEDEN",
    "lat": 61.768,
    "lng": 17.081
  },
  "ESNI": {
    "name": "KUBBE",
    "city": "KUBBE",
    "country": "SWEDEN",
    "lat": 63.634,
    "lng": 17.94
  },
  "ESNJ": {
    "name": "JOKKMOKK",
    "city": "JOKKMOKK",
    "country": "SWEDEN",
    "lat": 66.496,
    "lng": 20.147
  },
  "ESNK": {
    "name": "KRAMFORS SOLLEFTEA",
    "city": "KRAMFORS",
    "country": "SWEDEN",
    "lat": 63.048,
    "lng": 17.769
  },
  "ESNL": {
    "name": "LYCKSELE",
    "city": "LYCKSELE",
    "country": "SWEDEN",
    "lat": 64.548,
    "lng": 18.716
  },
  "ESNM": {
    "name": "OPTAND",
    "city": "OPTAND",
    "country": "SWEDEN",
    "lat": 63.129,
    "lng": 14.803
  },
  "ESNN": {
    "name": "SUNDSVALL HARNOSAND",
    "city": "SUNDSVALL",
    "country": "SWEDEN",
    "lat": 62.528,
    "lng": 17.444
  },
  "ESNO": {
    "name": "ORNSKOLDSVIK",
    "city": "ORNSKOLDSVIK",
    "country": "SWEDEN",
    "lat": 63.408,
    "lng": 18.99
  },
  "ESNP": {
    "name": "PITEA",
    "city": "PITEA",
    "country": "SWEDEN",
    "lat": 65.399,
    "lng": 21.265
  },
  "ESNQ": {
    "name": "KIRUNA",
    "city": "KIRUNA",
    "country": "SWEDEN",
    "lat": 67.822,
    "lng": 20.337
  },